2,N,0.40,K,A*3F
$GPGGA,191019.000,1907.8970,N,07255.1120,E,1,5,1.51,52.7,M,-62.8,M,,*42
$GPGLL,1907.8970,N,07255.1120,E,191019.000,A,A*56
$GPGSA,A,3,02,05,19,06,12,,,,,,,,1.80,1.51,0.98*05
$GPGSV,2,1,08,02,67,341,29,12,45,334,26,05,42,164,34,24,37,251,18*74
$GPGSV,2,2,08,06,35,029,32,193,26,066,23,19,24,056,30,17,14,071,*4E
$GPRMC,191019.000,A,1907.8970,N,07255.1120,E,0.24,101.09,100217,,,A*6B
$GPVTG,101.09,T,,M,0.24,N,0.44,K,A*32
$GPGGA,191020.000,1907.8970,N,07255.1120,E,1,5,1.51,52.7,M,-62.8,M,,*48
$GPGLL,1907.8970,N,07255.1120,E,191020.000,A,A*5C
$GPGSA,A,3,02,05,19,06,12,,,,,,,,1.80,1.51,0.98*05
$GPGSV,2,1,08,02,67,341,29,12,45,334,26,05,42,164,34,24,37,251,18*74
$GPGSV,2,2,08,06,35,029,32,193,26,066,22,19,24,056,30,17,14,071,*4F
$GPRMC,191020.000,A,1907.8970,N,07255.1120,E,0.15,73.15,100217,,,A*5A
$GPVTG,73.15,T,,M,0.15,N,0.28,K,A*03
$GPGGA,191021.000,1907.8970,N,07255.1121,E,1,5,1.51,52.7,M,-62.8,M,,*48
$GPGLL,1907.8970,N,07255.1121,E,191021.000,A,A*5C
$GPGSA,A,3,02,05,19,06,12,,,,,,,,1.80,1.51,0.98*05
$GPGSV,2,1,08,02,67,341,29,12,45,334,26,05,42,164,34,24,37,251,18*74
$GPGSV,2,2,08,06,35,029,33,193,26,066,22,19,24,056,30,17,14,071,*4E
$GPRMC,191021.000,A,1907.8970,N,07255.1121,E,0.32,106.02,100217,,,A*6A
$GPVTG,106.02,T,,M,0.32,N,0.59,K,A*35
$GPGGA,191022.000,1907.8970,N,07255.1122,E,1,5,1.51,52.7,M,-62.8,M,,*48
$GPGLL,1907.8970,N,07255.1122,E,191022.000,A,A*5C
$GPGSA,A,3,02,05,19,06,12,,,,,,,,1.80,1.51,0.98*05
$GPGSV,2,1,08,02,67,341,29,12,45,334,26,05,42,164,34,24,37,251,18*74
$GPGSV,2,2,08,06,35,029,33,193,26,066,22,19,24,056,29,17,14,071,*46
$GPRMC,191022.000,A,1907.8970,N,07255.1122,E,0.14,106.53,100217,,,A*6A
$GPVTG,106.53,T,,M,0.14,N,0.26,K,A*3D
$GPGGA,191023.000,1907.8970,N,07255.1122,E,1,5,1.51,52.7,M,-62.8,M,,*49
$GPGLL,1907.8970,N,07255.1122,E,191023.000,A,A*5D
$GPGSA,A,3,02,05,19,06,12,,,,,,,,1.80,1.51,0.98*05
$GPGSV,2,1,08,02,67,341,30,12,45,334,26,05,42,164,34,24,37,251,18*7C
$GPGSV,2,2,08,06,35,029,33,193,26,066,22,19,24,056,29,17,14,071,*46
$GPRMC,191023.000,A,1907.8970,N,07255.1122,E,0.20,110.91,100217,,,A*65
$GPVTG,110.91,T,,M,0.20,N,0.37,K,A*33
$GPGGA,191024.000,1907.8970,N,07255.1123,E,1,5,1.51,52.7,M,-62.8,M,,*4F
$GPGLL,1907.8970,N,07255.1123,E,191024.000,A,A*5B
$GPGSA,A,3,02,05,19,06,12,,,,,,,,1.80,1.51,0.98*05
$GPGSV,2,1,08,02,67,341,30,12,45,334,26,05,42,164,33,24,37,251,18*7B
$GPGSV,2,2,08,06,35,029,33,193,26,066,22,19,24,056,28,17,14,071,*47
$GPRMC,191024.000,A,1907.8970,N,07255.1123,E,0.25,66.31,100217,,,A*5C
$GPVTG,66.31,T,,M,0.25,N,0.46,K,A*0A
$GPGGA,191025.000,1907.8970,N,07255.1123,E,1,5,1.51,52.7,M,-62.8,M,,*4E
$GPGLL,1907.8970,N,07255.1123,E,191025.000,A,A*5A
$GPGSA,A,3,02,05,19,06,12,,,,,,,,1.80,1.51,0.98*05
$GPGSV,2,1,08,02,67,341,29,12,45,334,25,05,42,164,33,24,37,251,18*70
$GPGSV,2,2,08,06,35,029,33,193,26,066,22,19,24,056,27,17,14,071,*48
$GPRMC,191025.000,A,1907.8970,N,07255.1123,E,0.23,62.60,100217,,,A*5B
$GPVTG,62.60,T,,M,0.23,N,0.43,K,A*09
$GPGGA,191026.000,1907.8970,N,07255.1124,E,1,5,1.51,52.7,M,-62.8,M,,*4A
$GPGLL,1907.8970,N,07255.1124,E,191026.000,A,A*5E
$GPGSA,A,3,02,05,19,06,12,,,,,,,,1.80,1.51,0.98*05
$GPGSV,2,1,08,02,67,341,36,12,45,334,27,05,42,164,35,24,37,251,28*79
$GPGSV,2,2,08,06,35,029,33,193,26,066,24,19,24,056,29,17,14,071,*40
$GPRMC,191026.000,A,1907.8970,N,07255.1124,E,0.19,357.04,100217,,,A*61
$GPVTG,357.04,T,,M,0.19,N,0.35,K,A*36
$GPGGA,191027.000,1907.8971,N,07255.1124,E,1,5,2.44,52.7,M,-62.8,M,,*4D
$GPGLL,1907.8971,N,07255.1124,E,191027.000,A,A*5E
$GPGSA,A,3,02,05,19,06,12,,,,,,,,5.75,2.44,5.21*0B
$GPGSV,2,1,08,02,67,341,36,12,45,334,27,05,42,164,37,24,37,251,29*7A
$GPGSV,2,2,08,06,35,029,34,193,26,066,25,19,24,056,31,17,14,071,*4F
$GPRMC,191027.000,A,1907.8971,N,07255.1124,E,0.14,261.72,100217,,,A*69
$GPVTG,261.72,T,,M,0.14,N,0.26,K,A*3C
$GPGGA,191028.000,1907.8971,N,07255.1123,E,1,5,1.51,52.7,M,-62.8,M,,*42
$GPGLL,1907.8971,N,07255.1123,E,191028.000,A,A*56
$GPGSA,A,3,02,05,19,06,12,,,,,,,,1.80,1.51,0.98*05
$GPGSV,2,1,08,02,67,341,36,12,45,334,29,05,42,164,38,24,37,251,29*7B
$GPGSV,2,2,08,06,35,029,34,193,26,066,26,19,24,056,31,17,14,071,*4C
$GPRMC,191028.000,A,1907.8971,N,07255.1123,E,0.12,280.34,100217,,,A*6A
$GPVTG,280.34,T,,M,0.12,N,0.22,K,A*33
$GPGGA,191029.000,1907.8971,N,07255.1123,E,1,5,1.51,52.7,M,-62.8,M,,*43
$GPGLL,1907.8971,N,07255.1123,E,191029.000,A,A*57
$GPGSA,A,3,02,05,19,06,12,,,,,,,,1.80,1.51,0.98*05
$GPGSV,2,1,08,02,67,341,36,12,45,334,29,05,42,164,39,24,37,251,30*72
$GPGSV,2,2,08,06,35,029,35,193,26,066,26,19,24,056,32,17,14,071,*4E
$GPRMC,191029.000,A,1907.8971,N,07255.1123,E,0.21,217.48,100217,,,A*6E
$GPVTG,217.48,T,,M,0.21,N,0.39,K,A*3C
$GPGGA,191030.000,1907.8971,N,07255.1123,E,1,5,1.51,52.7,M,-62.8,M,,*4B
$GPGLL,1907.8971,N,07255.1123,E,191030.000,A,A*5F
$GPGSA,A,3,02,05,19,06,12,,,,,,,,1.80,1.51,0.98*05
$GPGSV,2,1,08,02,67,341,35,12,45,334,29,05,42,164,40,24,37,251,30*7F
$GPGSV,2,2,08,06,35,029,35,193,26,066,27,19,24,056,33,17,14,071,*4E
$GPRMC,191030.000,A,1907.8971,N,07255.1123,E,0.15,238.89,100217,,,A*61
$GPVTG,238.89,T,,M,0.15,N,0.27,K,A*34
$GPGGA,191031.000,1907.8970,N,07255.1122,E,1,5,1.51,52.7,M,-62.8,M,,*4A
$GPGLL,1907.8970,N,07255.1122,E,191031.000,A,A*5E
$GPGSA,A,3,02,05,19,06,12,,,,,,,,1.80,1.51,0.98*05
$GPGSV,2,1,08,02,67,341,34,12,45,334,28,05,42,164,40,24,37,251,30*7F
$GPGSV,2,2,08,06,35,029,35,193,26,066,27,19,24,056,33,17,14,071,*4E
$GPRMC,191031.000,A,1907.8970,N,07255.1122,E,0.11,239.15,100217,,,A*60
$GPVTG,239.15,T,,M,0.11,N,0.20,K,A*33
$GPGGA,191032.000,1907.8970,N,07255.1122,E,1,5,1.51,52.7,M,-62.8,M,,*49
$GPGLL,1907.8970,N,07255.1122,E,191032.000,A,A*5D
$GPGSA,A,3,02,05,19,06,12,,,,,,,,1.80,1.51,0.98*05
$GPGSV,2,1,08,02,67,341,34,12,45,334,28,05,42,164,39,24,37,251,29*79
$GPGSV,2,2,08,06,35,029,34,193,26,066,27,19,24,056,32,17,14,071,*4E
$GPRMC,191032.000,A,1907.8970,N,07255.1122,E,0.05,227.37,100217,,,A*69
$GPVTG,227.37,T,,M,0.05,N,0.09,K,A*32
$GPGGA,191033.000,1907.8970,N,07255.1122,E,1,5,1.51,52.7,M,-62.8,M,,*48
$GPGLL,1907.8970,N,07255.1122,E,191033.000,A,A*5C
$GPGSA,A,3,02,05,19,06,12,,,,,,,,1.80,1.51,0.98*05
$GPGSV,2,1,08,02,67,341,34,12,45,334,27,05,42,164,39,24,37,251,29*76
$GPGSV,2,2,08,06,35,029,34,193,26,066,26,19,24,056,32,17,14,071,28*45
$GPRMC,191033.000,A,1907.8970,N,07255.1122,E,0.07,220.89,100217,,,A*68
$GPVTG,220.89,T,,M,0.07,N,0.13,K,A*39
$GPGGA,191034.000,1907.8970,N,07255.1122,E,1,5,1.51,52.7,M,-62.8,M,,*4F
$GPGLL,1907.8970,N,07255.1122,E,191034.000,A,A*5B
$GPGSA,A,3,02,05,19,06,12,,,,,,,,1.80,1.51,0.98*05
$GPGSV,2,1,08,02,67,341,35,12,45,334,28,05,42,164,39,24,37,251,27*76
$GPGSV,2,2,08,06,35,029,33,193,26,066,26,19,24,056,31,17,14,071,27*4E
$GPRMC,191034.000,A,1907.8970,N,07255.1122,E,0.07,298.37,100217,,,A*69
$GPVTG,298.37,T,,M,0.07,N,0.13,K,A*3F
$GPGGA,191035.000,1907.8970,N,07255.1122,E,1,5,1.51,52.7,M,-62.8,M,,*4E
$GPGLL,1907.8970,N,07255.1122,E,191035.000,A,A*5A
$GPGSA,A,3,02,05,19,06,12,,,,,,,,1.80,1.51,0.98*05
$GPGSV,2,1,08,02,67,341,35,12,45,334,27,05,42,164,40,24,37,251,28*78
$GPGSV,2,2,08,06,35,029,34,193,26,066,27,19,24,056,32,17,14,071,30*4D
$GPRMC,191035.000,A,1907.8970,N,07255.1122,E,0.22,17.72,100217,,,A*5B
$GPVTG,17.72,T,,M,0.22,N,0.41,K,A*0B
$GPGGA,191036.000,1907.8971,N,07255.1122,E,1,5,1.51,52.7,M,-62.8,M,,*4C
$GPGLL,1907.8971,N,07255.1122,E,191036.000,A,A*58
$GPGSA,A,3,02,05,19,06,12,,,,,,,,1.80,1.51,0.98*05
$GPGSV,2,1,08,02,67,341,34,12,45,334,28,05,42,164,38,24,37,251,26*77
$GPGSV,2,2,08,06,35,029,33,193,26,066,27,19,24,056,32,17,14,071,26*4D
$GPRMC,191036.000,A,1907.8971,N,07255.1122,E,0.16,358.53,100217,,,A*65
$GPVTG,358.53,T,,M,0.16,N,0.29,K,A*39
$GPGGA,191037.000,1907.8971,N,07255.1122,E,1,5,2.45,52.7,M,-62.8,M,,*4B
$GPGLL,1907.8971,N,07255.1122,E,191037.000,A,A*59
$GPGSA,A,3,02,05,19,06,12,,,,,,,,5.78,2.45,5.23*05
$GPGSV,3,1,09,02,67,341,33,12,45,334,27,05,42,164,38,24,37,251,27*7E
$GPGSV,3,2,09,06,35,029,34,193,26,066,27,19,24,056,32,17,14,071,25*49
$GPGSV,3,3,09,25,07,323,*42
$GPRMC,191037.000,A,1907.8971,N,07255.1122,E,0.13,28.81,100217,,,A*5A
$GPVTG,28.81,T,,M,0.13,N,0.23,K,A*0D
$GPGGA,191038.000,1907.8972,N,07255.1122,E,1,5,1.51,52.7,M,-62.8,M,,*41
$GPGLL,1907.8972,N,07255.1122,E,191038.000,A,A*55
$GPGSA,A,3,02,05,19,06,12,,,,,,,,1.80,1.51,0.98*05
$GPGSV,3,1,09,02,67,341,34,12,45,334,28,05,42,164,38,24,37,251,26*77
$GPGSV,3,2,09,06,35,029,33,193,26,066,27,19,24,056,31,17,14,071,29*41
$GPGSV,3,3,09,25,0M,,*48
$GPGLL,1907.8973,N,07255.1127,E,191053.000,A,A*5C
$GPGSA,A,3,02,05,19,06,12,,,,,,,,1.80,1.51,0.98*05
$GPGSV,3,1,09,02,67,341,34,12,45,334,31,05,42,164,37,24,37,250,28*7F
$GPGSV,3,2,09,06,35,029,28,193,26,066,25,19,24,057,30,17,14,071,29*49
$GPGSV,3,3,09,25,07,323,*42
$GPRMC,191053.000,A,1907.8973,N,07255.1127,E,0.11,329.05,100217,,,A*63
$GPVTG,329.05,T,,M,0.11,N,0.20,K,A*32
$GPGGA,191054.000,1907.8973,N,07255.1126,E,1,5,1.51,52.7,M,-62.8,M,,*4E
$GPGLL,1907.8973,N,07255.1126,E,191054.000,A,A*5A
$GPGSA,A,3,02,05,19,06,12,,,,,,,,1.80,1.51,0.98*05
$GPGSV,3,1,09,02,67,341,35,12,45,334,31,05,42,164,37,24,37,250,27*71
$GPGSV,3,2,09,06,35,029,29,193,26,066,25,19,24,057,30,17,14,071,29*48
$GPGSV,3,3,09,25,07,323,*42
$GPRMC,191054.000,A,1907.8973,N,07255.1126,E,0.15,294.72,100217,,,A*66
$GPVTG,294.72,T,,M,0.15,N,0.29,K,A*38
$GPGGA,191055.000,1907.8973,N,07255.1126,E,1,5,1.51,52.7,M,-62.8,M,,*4F
$GPGLL,1907.8973,N,07255.1126,E,191055.000,A,A*5B
$GPGSA,A,3,02,05,19,06,12,,,,,,,,1.80,1.51,0.98*05
$GPGSV,3,1,09,02,67,341,36,12,45,334,32,05,42,164,37,24,37,250,28*7E
$GPGSV,3,2,09,06,35,029,30,193,26,066,26,19,24,057,31,17,14,071,29*42
$GPGSV,3,3,09,25,07,323,*42
$GPRMC,191055.000,A,1907.8973,N,07255.1126,E,0.30,294.21,100217,,,A*66
$GPVTG,294.21,T,,M,0.30,N,0.55,K,A*32
$GPGGA,191056.000,1907.8973,N,07255.1125,E,1,5,1.51,52.7,M,-62.8,M,,*4F
$GPGLL,1907.8973,N,07255.1125,E,191056.000,A,A*5B
$GPGSA,A,3,02,05,19,06,12,,,,,,,,1.80,1.51,0.98*05
$GPGSV,3,1,09,02,67,341,35,12,45,334,31,05,42,164,37,24,37,250,27*71
$GPGSV,3,2,09,06,35,029,31,193,26,066,27,19,24,057,31,17,14,071,29*42
$GPGSV,3,3,09,25,07,323,*42
$GPRMC,191056.000,A,1907.8973,N,07255.1125,E,0.24,230.96,100217,,,A*61
$GPVTG,230.96,T,,M,0.24,N,0.45,K,A*34
$GPGGA,191057.000,1907.8973,N,07255.1125,E,1,5,1.51,52.7,M,-62.8,M,,*4E
$GPGLL,1907.8973,N,07255.1125,E,191057.000,A,A*5A
$GPGSA,A,3,02,05,19,06,12,,,,,,,,1.80,1.51,0.98*05
$GPGSV,3,1,09,02,67,341,34,12,45,334,30,05,42,164,37,24,37,250,25*73
$GPGSV,3,2,09,06,35,029,32,193,26,066,27,19,24,057,31,17,14,071,29*41
$GPGSV,3,3,09,25,07,323,*42
$GPRMC,191057.000,A,1907.8973,N,07255.1125,E,0.24,253.28,100217,,,A*60
$GPVTG,253.28,T,,M,0.24,N,0.44,K,A*35
$GPGGA,191058.000,1907.8973,N,07255.1124,E,1,5,1.51,52.7,M,-62.8,M,,*40
$GPGLL,1907.8973,N,07255.1124,E,191058.000,A,A*54
$GPGSA,A,3,02,05,19,06,12,,,,,,,,1.80,1.51,0.98*05
$GPGSV,3,1,09,02,67,341,34,12,45,334,28,05,42,164,37,24,37,250,17*7B
$GPGSV,3,2,09,06,35,029,32,193,26,066,26,19,24,057,31,17,14,071,29*40
$GPGSV,3,3,09,25,07,323,*42
$GPRMC,191058.000,A,1907.8973,N,07255.1124,E,0.25,244.91,100217,,,A*6B
$GPVTG,244.91,T,,M,0.25,N,0.46,K,A*32
$GPGGA,191059.000,1907.8972,N,07255.1123,E,1,5,1.51,52.7,M,-62.8,M,,*47
$GPGLL,1907.8972,N,07255.1123,E,191059.000,A,A*53
$GPGSA,A,3,02,05,19,06,12,,,,,,,,1.80,1.51,0.98*05
$GPGSV,3,1,09,02,66,342,34,12,45,334,27,05,42,164,37,24,37,250,17*76
$GPGSV,3,2,09,06,35,029,32,193,26,066,26,19,24,057,31,17,14,071,30*48
$GPGSV,3,3,09,25,07,323,*42
$GPRMC,191059.000,A,1907.8972,N,07255.1123,E,0.21,271.74,100217,,,A*65
$GPVTG,271.74,T,,M,0.21,N,0.39,K,A*33
$GPGGA,191100.000,1907.8972,N,07255.1123,E,1,5,1.51,52.7,M,-62.8,M,,*4A
$GPGLL,1907.8972,N,07255.1123,E,191100.000,A,A*5E
$GPGSA,A,3,02,05,19,06,12,,,,,,,,1.80,1.51,0.98*05
$GPGSV,3,1,09,02,66,342,34,12,45,334,27,05,42,164,37,24,37,250,18*79
$GPGSV,3,2,09,06,35,029,32,193,26,066,27,19,24,057,32,17,14,071,30*4A
$GPGSV,3,3,09,25,07,323,*42
$GPRMC,191100.000,A,1907.8972,N,07255.1123,E,0.18,273.27,100217,,,A*66
$GPVTG,273.27,T,,M,0.18,N,0.34,K,A*30
$GPGGA,191101.000,1907.8973,N,07255.1122,E,1,6,1.34,52.7,M,-62.8,M,,*4B
$GPGLL,1907.8973,N,07255.1122,E,191101.000,A,A*5F
$GPGSA,A,3,02,05,19,06,12,17,,,,,,,1.66,1.34,0.98*08
$GPGSV,3,1,09,02,66,342,34,12,45,334,27,05,42,164,37,24,37,250,20*72
$GPGSV,3,2,09,06,35,029,31,193,26,066,26,19,24,057,31,17,14,071,30*4B
$GPGSV,3,3,09,25,07,323,*42
$GPRMC,191101.000,A,1907.8973,N,07255.1122,E,0.10,158.79,100217,,,A*6E
$GPVTG,158.79,T,,M,0.10,N,0.18,K,A*37
$GPGGA,191102.000,1907.8972,N,07255.1122,E,1,6,1.34,52.7,M,-62.8,M,,*49
$GPGLL,1907.8972,N,07255.1122,E,191102.000,A,A*5D
$GPGSA,A,3,02,05,19,06,12,17,,,,,,,1.66,1.34,0.98*08
$GPGSV,3,1,09,02,66,342,34,12,45,334,28,05,42,164,37,24,37,250,22*7F
$GPGSV,3,2,09,06,35,029,31,193,26,066,26,19,24,057,31,17,14,071,30*4B
$GPGSV,3,3,09,25,07,323,*42
$GPRMC,191102.000,A,1907.8972,N,07255.1122,E,0.09,116.16,100217,,,A*67
$GPVTG,116.16,T,,M,0.09,N,0.17,K,A*33
$GPGGA,191103.000,1907.8972,N,07255.1123,E,1,6,1.34,52.7,M,-62.8,M,,*49
$GPGLL,1907.8972,N,07255.1123,E,191103.000,A,A*5D
$GPGSA,A,3,02,05,19,06,12,17,,,,,,,1.66,1.34,0.98*08
$GPGSV,3,1,09,02,66,342,34,12,45,334,28,05,42,164,37,24,37,250,22*7F
$GPGSV,3,2,09,06,35,029,32,193,26,066,27,19,24,057,32,17,14,071,30*4A
$GPGSV,3,3,09,25,07,323,*42
$GPRMC,191103.000,A,1907.8972,N,07255.1123,E,0.19,91.23,100217,,,A*5E
$GPVTG,91.23,T,,M,0.19,N,0.35,K,A*0A
$GPGGA,191104.000,1907.8972,N,07255.1123,E,1,6,1.34,52.7,M,-62.8,M,,*4E
$GPGLL,1907.8972,N,07255.1123,E,191104.000,A,A*5A
$GPGSA,A,3,02,05,19,06,12,17,,,,,,,1.66,1.34,0.98*08
$GPGSV,3,1,09,02,66,342,35,12,45,334,29,05,42,164,38,24,37,250,29*7B
$GPGSV,3,2,09,06,35,029,31,193,26,066,27,19,24,057,33,17,14,071,31*49
$GPGSV,3,3,09,25,07,323,*42
$GPRMC,191104.000,A,1907.8972,N,07255.1123,E,0.03,283.93,100217,,,A*68
$GPVTG,283.93,T,,M,0.03,N,0.05,K,A*38
$GPGGA,191105.000,1907.8972,N,07255.1123,E,1,6,1.34,52.7,M,-62.8,M,,*4F
$GPGLL,1907.8972,N,07255.1123,E,191105.000,A,A*5B
$GPGSA,A,3,02,05,19,06,12,17,,,,,,,1.66,1.34,0.98*08
$GPGSV,3,1,09,02,66,342,35,12,45,334,29,05,42,164,39,24,37,250,29*7A
$GPGSV,3,2,09,06,35,029,31,193,26,066,26,19,24,057,34,17,14,071,32*4C
$GPGSV,3,3,09,25,07,323,*42
$GPRMC,191105.000,A,1907.8972,N,07255.1123,E,0.07,161.67,100217,,,A*69
$GPVTG,161.67,T,,M,0.07,N,0.13,K,A*3F
$GPGGA,191106.000,1907.8972,N,07255.1123,E,1,6,1.34,52.7,M,-62.8,M,,*4C
$GPGLL,1907.8972,N,07255.1123,E,191106.000,A,A*58
$GPGSA,A,3,02,05,19,06,12,17,,,,,,,1.66,1.34,0.98*08
$GPGSV,3,1,09,02,66,342,35,12,45,334,29,05,42,164,38,24,37,250,28*7A
$GPGSV,3,2,09,06,35,029,31,193,26,066,25,19,24,057,34,17,14,071,32*4F
$GPGSV,3,3,09,25,07,323,*42
$GPRMC,191106.000,A,1907.8972,N,07255.1123,E,0.11,209.54,100217,,,A*60
$GPVTG,209.54,T,,M,0.11,N,0.21,K,A*34
$GPGGA,191107.000,1907.8972,N,07255.1123,E,1,6,1.34,52.7,M,-62.8,M,,*4D
$GPGLL,1907.8972,N,07255.1123,E,191107.000,A,A*59
$GPGSA,A,3,02,05,19,06,12,17,,,,,,,1.66,1.34,0.98*08
$GPGSV,3,1,09,02,66,342,34,12,45,334,28,05,42,164,37,24,37,250,19*77
$GPGSV,3,2,09,06,35,029,31,193,26,066,24,19,24,057,26,17,14,071,31*4E
$GPGSV,3,3,09,25,07,323,*42
$GPRMC,191107.000,A,1907.8972,N,07255.1123,E,0.18,308.21,100217,,,A*6A
$GPVTG,308.21,T,,M,0.18,N,0.33,K,A*3C
$GPGGA,191108.000,1907.8972,N,07255.1123,E,1,6,1.34,52.7,M,-62.8,M,,*42
$GPGLL,1907.8972,N,07255.1123,E,191108.000,A,A*56
$GPGSA,A,3,02,05,19,06,12,17,,,,,,,1.66,1.34,0.98*08
$GPGSV,3,1,09,02,66,342,34,12,45,334,29,05,42,164,37,24,37,250,20*7C
$GPGSV,3,2,09,06,35,029,31,193,26,066,25,19,24,057,25,17,14,071,31*4C
$GPGSV,3,3,09,25,07,323,*42
$GPRMC,191108.000,A,1907.8972,N,07255.1123,E,0.17,287.21,100217,,,A*6C
$GPVTG,287.21,T,,M,0.17,N,0.32,K,A*34
$GPGGA,191109.000,1907.8972,N,07255.1122,E,1,6,1.34,52.7,M,-62.8,M,,*42
$GPGLL,1907.8972,N,07255.1122,E,191109.000,A,A*56
$GPGSA,A,3,02,05,19,06,12,17,,,,,,,1.66,1.34,0.98*08
$GPGSV,3,1,09,02,66,342,34,12,45,334,27,05,42,164,36,24,37,250,21*72
$GPGSV,3,2,09,06,35,029,31,193,26,066,24,19,24,057,26,17,14,071,30*4F
$GPGSV,3,3,09,25,07,323,*42
$GPRMC,191109.000,A,1907.8972,N,07255.1122,E,0.18,269.35,100217,,,A*66
$GPVTG,269.35,T,,M,0.18,N,0.33,K,A*3F
$GPGGA,191110.000,1907.8972,N,07255.1122,E,1,6,1.34,52.7,M,-62.8,M,,*4A
$GPGLL,1907.8972,N,07255.1122,E,191110.000,A,A*5E
$GPGSA,A,3,02,05,19,06,12,17,,,,,,,1.66,1.34,0.98*08
$GPGSV,3,1,09,02,66,342,35,12,45,334,27,05,42,164,37,24,37,250,23*70
$GPGSV,3,2,09,06,35,029,32,193,26,066,26,19,24,057,34,17,14,071,31*4C
$GPGSV,3,3,09,25,07,323,*42
$GPRMC,191110.000,A,1907.8972,N,07255.1122,E,0.23,293.66,100217,,,A*65
$GPVTG,293.66,T,,M,0.23,N,0.42,K,A*32
$GPGGA,191111.000,1907.8973,N,07255.1121,E,1,6,1.34,52.7,M,-62.8,M,,*49
$GPGLL,1907.8973,N,07255.1121,E,191111.000,A,A*5D
$GPGSA,A,3,02,05,19,06,12,17,,,,,,,1.66,1.34,0.98*08
$GPGSV,3,1,09,02,66,342,36,12,45,334,27,05,42,164,37,24,37,250,25*75
$GPGSV,3,2,09,06,35,029,33,193,26,066,26,19,24,057,33,17,14,071,32*49
$GPGSV,3,3,09,25,07,323,*42
$GPRMC,191111.000,A,1907.8973,N,07255.1121,E,0.21,272.78,100217,,,A*64
$GPVTG,272.78,T,,M,0.21,N,0.39,K,A*3C
$GPGGA,191112.000,1907.8973,N,07255.1120,E,1,6,1.34,52.7,M,-62.8,M,,*4B
$GPGLL,1907.8973,N,07255.1120,E,191112.000,A,A*5F
$GPGSA,A,3,02,05,19,06,12,17,,,,,,,1.66,1.34,0.98*08
$GPGSV,3,1,09,02,66,342,36,12,45,334,27,05,42,164,38,24,37,250,25*7A
$GPGSV,3,2,09,06,35,029,32,193,26,066,25,19,24,057,32,17,14,071,32*4A
$GPGSV,3,3,09,25,07,323,*42
$GPRMC,191112.000,A,1907.8973,N,07255.1120,E,0.15,230.04,100217,,,A*6C
$GPVTG,230.04,T,,M,0.15,N,0.27,K,A*39
$GPGGA,191113.000,1907.8972,N,07255.1120,E,1,6,1.34,52.7,M,-62.8,M,,*4B
$GPGLL,1907.8972,N,07255.1120,E,191113.000,A,A*5F
$GPGSA,A,3,02,05,19,06,12,17,,,,,,,1.66,1.34,0.98*08
$GPGSV,3,1,09,02,66,342,35,12,45,334,26,05,42,164,38,24,37,250,24*79
$GPGSV,3,2,09,06,35,029,31,193,26,066,23,19,24,057,30,17,14,071,31*4E
$GPGSV,3,3,09,25,07,323,*42
$GPRMC,191113.000,A,1907.8972,N,07255.1120,E,0.23,210.28,100217,,,A*65
$GPVTG,210.28,T,,M,0.23,N,0.42,K,A*33
$GPGGA,191114.000,1907.8972,N,07255.1120,E,1,6,1.34,52.7,M,-62.8,M,,*4C
$GPGLL,1907.8972,N,07255.1120,E,191114.000,A,A*58
$GPGSA,A,3,02,05,19,06,12,17,,,,,,,1.66,1.34,0.98*08
$GPGSV,3,1,09,02,66,342,34,12,45,334,26,05,42,164,37,24,37,250,23*70
$GPGSV,3,2,09,06,35,029,29,193,26,066,22,19,24,057,29,17,14,071,29*47
$GPGSV,3,3,09,25,07,323,*42
$GPRMC,191114.000,A,1907.8972,N,07255.1120,E,0.11,301.76,100217,,,A*69
$GPVTG,301.76,T,,M,0.11,N,0.21,K,A*3D
$GPGGA,191115.000,1907.8972,N,07255.1119,E,1,6,1.34,52.7,M,-62.8,M,,*47
$GPGLL,1907.8972,N,07255.1119,E,191115.000,A,A*53
$GPGSA,A,3,02,05,19,06,12,17,,,,,,,1.66,1.34,0.98*08
$GPGSV,3,1,09,02,66,342,33,12,45,334,25,05,42,164,37,24,37,250,21*76
$GPGSV,3,2,09,06,35,029,28,193,26,066,21,19,24,057,29,17,14,071,28*44
$GPGSV,3,3,09,25,07,323,*42
$GPRMC,191115.000,A,1907.8972,N,07255.1119,E,0.14,249.51,100217,,,A*6F
$GPVTG,249.51,T,,M,0.14,N,0.26,K,A*37
$GPGGA,191116.000,1907.8972,N,07255.1119,E,1,6,1.34,52.7,M,-62.8,M,,*44
$GPGLL,1907.8972,N,07255.1119,E,191116.000,A,A*50
$GPGSA,A,3,02,05,19,06,12,17,,,,,,,1.66,1.34,0.98*08
$GPGSV,3,1,09,02,66,342,32,12,45,334,25,05,42,164,37,24,37,250,20*76
$GPGSV,3,2,09,06,35,029,28,193,26,066,22,19,24,057,28,17,14,071,26*48
$GPGSV,3,3,09,25,07,323,*42
$GPRMC,191116.000,A,1907.8972,N,07255.1119,E,0.05,305.85,100217,,,A*6C
$GPVTG,305.85,T,,M,0.05,N,0.10,K,A*32
$GPGGA,191117.000,1907.8972,N,07255.1119,E,1,6,1.34,52.7,M,-62.8,M,,*45
$GPGLL,1907.8972,N,07255.1119,E,191117.000,A,A*51
$GPGSA,A,3,02,05,19,06,12,17,,,,,,,1.66,1.34,0.98*08
$GPGSV,3,1,09,02,66,342,32,12,45,334,25,05,42,164,37,24,37,250,20*76
$GPGSV,3,2,09,06,35,029,27,193,26,066,22,19,24,057,29,17,14,071,26*46
$GPGSV,3,3,09,25,07,323,*42
$GPRMC,191117.000,A,1907.8972,N,07255.1119,E,0.04,296.31,100217,,,A*68
$GPVTG,296.31,T,,M,0.04,N,0.08,K,A*3E
$GPGGA,191118.000,1907.8972,N,07255.1119,E,1,6,1.34,52.7,M,-62.8,M,,*4A
$GPGLL,1907.8972,N,07255.1119,E,191118.000,A,A*5E
$GPGSA,A,3,02,05,19,06,12,17,,,,,,,1.66,1.34,0.98*08
$GPGSV,3,1,09,02,66,342,33,12,45,334,32,05,42,164,37,24,37,250,21*70
$GPGSV,3,2,09,06,35,029,37,193,26,066,30,19,24,057,29,17,14,071,27*45
$GPGSV,3,3,09,25,07,323,*42
$GPRMC,191118.000,A,1907.8972,N,07255.1119,E,0.09,33.80,100217,,,A*5D
$GPVTG,33.80,T,,M,0.09,N,0.18,K,A*05
$GPGGA,191119.000,1907.8972,N,07255.1119,E,1,6,1.34,52.7,M,-62.8,M,,*4B
$GPGLL,1907.8972,N,07255.1119,E,191119.000,A,A*5F
$GPGSA,A,3,02,05,19,06,12,17,,,,,,,1.66,1.34,0.98*08
$GPGSV,3,1,09,02,66,342,34,12,45,334,31,05,42,164,37,24,37,250,23*76
$GPGSV,3,2,09,06,35,029,35,193,26,066,29,19,24,057,30,17,14,071,27*47
$GPGSV,3,3,09,25,07,323,*42
$GPRMC,191119.000,A,1907.8972,N,07255.1119,E,0.06,321.46,100217,,,A*69
$GPVTG,321.46,T,,M,0.06,N,0.11,K,A*39
$GPGGA,191120.000,1907.8972,N,07255.1119,E,1,6,1.34,52.7,M,-62.8,M,,*41
$GPGLL,1907.8972,N,07255.1119,E,191120.000,A,A*55
$GPGSA,A,3,02,05,19,06,12,17,,,,,,,1.66,1.34,0.98*08
$GPGSV,3,1,09,02,66,342,33,12,45,334,30,05,42,164,36,24,37,250,23*71
$GPGSV,3,2,09,06,35,029,34,193,26,066,27,19,24,057,30,17,14,071,27*48
$GPGSV,3,3,09,25,07,323,*42
$GPRMC,191120.000,A,1907.8972,N,07255.1119,E,0.05,231.92,100217,,,A*69
$GPVTG,231.92,T,,M,0.05,N,0.09,K,A*3A
$GPGGA,191121.000,1907.8972,N,07255.1119,E,1,6,1.34,52.7,M,-62.8,M,,*40
$GPGLL,1907.8972,N,07255.1119,E,191121.000,A,A*54
$GPGSA,A,3,02,05,19,06,12,17,,,,,,,1.66,1.34,0.98*08
$GPGSV,3,1,09,02,66,342,33,12,45,334,30,05,42,164,35,24,37,250,23*72
$GPGSV,3,2,09,06,35,029,33,193,26,066,27,19,24,057,30,17,14,071,27*4F
$GPGSV,3,3,09,25,07,323,*42
$GPRMC,191121.000,A,1907.8972,N,07255.1119,E,0.05,57.36,100217,,,A*54
$GPVTG,57.36,T,,M,0.05,N,0.09,K,A*06
$GPGGA,191122.000,1907.8972,N,07255.1119,E,1,6,1.34,52.7,M,-62.8,M,,*43
$GPGLL,1907.8972,N,07255.1119,E,191122.000,A,A*57
$GPGSA,A,3,02,05,19,06,12,17,,,,,,,1.66,1.34,0.98*08
$GPGSV,3,1,09,02,66,342,33,12,45,334,30,05,42,164,35,24,37,250,23*72
$GPGSV,3,2,09,06,35,029,33,193,26,066,27,19,24,057,30,17,14,071,27*4F
$GPGSV,3,3,09,25,07,323,*42
$GPRMC,191122.000,A,1907.8972,N,07255.1119,E,0.08,23.88,100217,,,A*5C
$GPVTG,23.88,T,,M,0.08,N,0.15,K,A*00
$GPGGA,191123.000,1907.8973,N,07255.1119,E,1,6,1.34,52.7,M,-62.8,M,,*43
$GPGLL,1907.8973,N,07255.1119,E,191123.000,A,A*57
$GPGSA,A,3,02,05,19,06,12,17,,,,,,,1.66,1.34,0.98*08
$GPGSV,3,1,09,02,66,342,33,12,45,334,29,05,42,164,35,24,37,250,23*7A
$GPGSV,3,2,09,06,35,029,33,193,26,066,27,19,24,057,30,17,14,071,26*4E
$GPGSV,3,3,09,25,07,323,*42
$GPRMC,191123.000,A,1907.8973,N,07255.1119,E,0.07,7.21,100217,,,A*66
$GPVTG,7.21,T,,M,0.07,N,0.13,K,A*3C
$GPGGA,191124.000,1907.8973,N,07255.1119,E,1,6,2.49,52.7,M,-62.8,M,,*4D
$GPGLL,1907.8973,N,07255.1119,E,191124.000,A,A*50
$GPGSA,A,3,02,05,19,06,12,17,,,,,,,5.32,2.49,4.71*07
$GPGSV,3,1,09,02,66,342,33,12,45,334,29,05,42,164,35,24,37,250,23*7A
$GPGSV,3,2,09,06,35,029,33,193,26,066,27,19,24,057,30,17,14,071,26*4E
$GPGSV,3,3,09,25,07,323,*42
$GPRMC,191124.000,A,1907.8973,N,07255.1119,E,0.08,6.80,100217,,,A*64
$GPVTG,6.80,T,,M,0.08,N,0.15,K,A*3F
$GPGGA,191125.000,1907.8973,N,07255.1119,E,1,6,2.49,52.7,M,-62.8,M,,*4C
$GPGLL,1907.8973,N,07255.1119,E,191125.000,A,A*51
$GPGSA,A,3,02,05,19,06,12,17,,,,,,,5.32,2.49,4.70*06
$GPGSV,3,1,09,02,66,342,34,12,45,334,29,05,42,164,36,24,37,250,23*7E
$GPGSV,3,2,09,06,35,029,32,193,26,066,26,19,24,057,31,17,14,071,26*4F
$GPGSV,3,3,09,25,07,323,*42
$GPRMC,191125.000,A,1907.8973,N,07255.1119,E,0.08,56.03,100217,,,A*5B
$GPVTG,56.03,T,,M,0.08,N,0.16,K,A*02
$GPGGA,191126.000,1907.8973,N,07255.1120,E,1,6,1.34,52.7,M,-62.8,M,,*4C
$GPGLL,1907.8973,N,07255.1120,E,191126.000,A,A*58
$GPGSA,A,3,02,05,19,06,12,17,,,,,,,1.66,1.34,0.98*08
$GPGSV,3,1,09,02,66,342,35,12,45,334,29,05,42,164,36,24,37,250,22*7E
$GPGSV,3,2,09,06,35,029,32,193,26,066,26,19,24,057,30,17,14,071,24*4C
$GPGSV,3,3,09,25,07,323,*42
$GPRMC,191126.000,A,1907.8973,N,07255.1120,E,0.12,7.12,100217,,,A*6D
$GPVTG,7.12,T,,M,0.12,N,0.23,K,A*3B
$GPGGA,191127.000,1907.8973,N,07255.1120,E,1,6,2.49,52.7,M,-62.8,M,,*44
$GPGLL,1907.8973,N,07255.1120,E,191127.000,A,A*59
$GPGSA,A,3,02,05,19,06,12,17,,,,,,,5.33,2.49,4.71*06
$GPGSV,3,1,09,02,66,342,35,12,45,334,29,05,42,164,36,24,37,250,22*7E
$GPGSV,3,2,09,06,35,029,32,193,26,066,26,19,24,057,30,17,14,071,23*4B
$GPGSV,3,3,09,25,07,323,*42
$GPRMC,191127.000,A,1907.8973,N,07255.1120,E,0.04,211.52,100217,,,A*6A
$GPVTG,211.52,T,,M,0.04,N,0.07,K,A*3B
$GPGGA,191128.000,1907.8973,N,07255.1120,E,1,6,1.34,52.7,M,-62.8,M,,*42
$GPGLL,1907.8973,N,07255.1120,E,191128.000,A,A*56
$GPGSA,A,3,02,05,19,06,12,17,,,,,,,1.66,1.34,0.98*08
$GPGSV,3,1,09,02,66,342,35,12,45,334,29,05,42,164,36,24,37,250,22*7E
$GPGSV,3,2,09,06,35,029,32,193,26,066,26,19,24,057,30,17,14,071,23*4B
$GPGSV,3,3,09,25,07,323,*42
$GPRMC,191128.000,A,1907.8973,N,07255.1120,E,0.09,17.16,100217,,,A*5C
$GPVTG,17.16,T,,M,0.09,N,0.17,K,A*03
$GPGGA,191129.000,1907.8974,N,07255.1120,E,1,6,1.34,52.7,M,-62.8,M,,*44
$GPGLL,1907.8974,N,07255.1120,E,191129.000,A,A*50
$GPGSA,A,3,02,05,19,06,12,17,,,,,,,1.66,1.34,0.98*08
$GPGSV,3,1,09,02,66,342,35,12,45,334,29,05,42,164,36,24,37,250,22*7E
$GPGSV,3,2,09,06,35,029,32,193,26,066,25,19,24,057,30,17,14,071,24*4F
$GPGSV,3,3,09,25,07,323,*42
$GPRMC,191129.000,A,1907.8974,N,07255.1120,E,0.13,7.30,100217,,,A*64
$GPVTG,7.30,T,,M,0.13,N,0.23,K,A*3A
$GPGGA,191130.000,1907.8974,N,07255.1120,E,1,6,2.49,52.7,M,-62.8,M,,*45
$GPGLL,1907.8974,N,07255.1120,E,191130.000,A,A*58
$GPGSA,A,3,02,05,19,06,12,17,,,,,,,5.34,2.49,4.72*02
$GPGSV,3,1,09,02,66,342,35,12,45,334,30,05,42,164,37,24,37,250,22*77
$GPGSV,3,2,09,06,35,029,32,193,26,066,25,19,24,057,29,17,14,071,23*40
$GPGSV,3,3,09,25,07,323,*42
$GPRMC,191130.000,A,1907.8974,N,07255.1120,E,0.07,42.98,100217,,,A*5A
$GPVTG,42.98,T,,M,0.07,N,0.13,K,A*0F
$GPGGA,191131.000,1907.8974,N,07255.1120,E,1,6,1.34,52.7,M,-62.8,M,,*4D
$GPGLL,1907.8974,N,07255.1120,E,191131.000,A,A*59
$GPGSA,A,3,02,05,19,06,12,17,,,,,,,1.66,1.34,0.98*08
$GPGSV,3,1,09,02,66,342,35,12,45,334,30,05,42,164,37,24,37,250,22*77
$GPGSV,3,2,09,06,35,029,32,193,26,066,26,19,24,057,29,17,14,071,22*42
$GPGSV,3,3,09,25,07,323,*42
$GPRMC,191131.000,A,1907.8974,N,07255.1120,E,0.05,199.60,100217,,,A*69
$GPVTG,199.60,T,,M,0.05,N,0.10,K,A*3E
$GPGGA,191132.000,1907.8974,N,07255.1120,E,1,6,1.34,52.7,M,-62.8,M,,*4E
$GPGLL,1907.8974,N,07255.1120,E,191132.000,A,A*5A
$GPGSA,A,3,02,05,19,06,12,17,,,,,,,1.66,1.34,0.98*08
$GPGSV,3,1,09,02,66,342,35,12,45,334,30,05,42,164,37,24,37,250,21*74
$GPGSV,3,2,09,06,35,029,31,193,26,065,26,19,24,057,29,17,14,071,22*42
$GPGSV,3,3,09,25,07,323,*42
$GPRMC,191132.000,A,1907.8974,N,07255.1120,E,0.17,221.65,100217,,,A*6C
$GPVTG,221.65,T,,M,0.17,N,0.32,K,A*38
$GPGGA,191133.000,1907.8974,N,07255.1120,E,1,6,1.34,52.7,M,-62.8,M,,*4F
$GPGLL,1907.8974,N,07255.1120,E,191133.000,A,A*5B
$GPGSA,A,3,02,05,19,06,12,17,,,,,,,1.66,1.34,0.98*08
$GPGSV,3,1,09,02,66,342,35,12,45,334,30,05,42,164,37,24,37,250,21*74
$GPGSV,3,2,09,06,35,029,32,193,26,065,27,19,24,057,30,17,14,071,23*49
$GPGSV,3,3,09,25,07,323,*42
$GPRMC,191133.000,A,1907.8974,N,07255.1120,E,0.27,240.33,100217,,,A*6A
$GPVTG,240.33,T,,M,0.27,N,0.50,K,A*3B
$GPGGA,191134.000,1907.8973,N,07255.1119,E,1,6,1.34,52.7,M,-62.8,M,,*45
$GPGLL,1907.8973,N,07255.1119,E,191134.000,A,A*51
$GPGSA,A,3,02,05,19,06,12,17,,,,,,,1.66,1.34,0.98*08
$GPGSV,3,1,09,02,66,342,34,12,45,334,30,05,42,164,36,24,37,250,20*75
$GPGSV,3,2,09,06,35,029,32,193,26,065,27,19,24,057,30,17,14,071,30*4B
$GPGSV,3,3,09,25,07,323,*42
$GPRMC,191134.000,A,1907.8973,N,07255.1119,E,0.22,240.52,100217,,,A*62
$GPVTG,240.52,T,,M,0.22,N,0.41,K,A*39
$GPGGA,191135.000,1907.8973,N,07255.1118,E,1,6,1.34,52.7,M,-62.8,M,,*45
$GPGLL,1907.8973,N,07255.1118,E,191135.000,A,A*51
$GPGSA,A,3,02,05,19,06,12,17,,,,,,,1.66,1.34,0.98*08
$GPGSV,3,1,09,02,66,342,33,12,45,334,30,05,42,164,36,24,37,250,19*78
$GPGSV,3,2,09,06,35,029,32,193,26,065,27,19,24,057,30,17,14,071,30*4B
$GPGSV,3,3,09,25,07,323,*42
$GPRMC,191135.000,A,1907.8973,N,07255.1118,E,0.17,253.65,100217,,,A*62
$GPVTG,253.65,T,,M,0.17,N,0.31,K,A*3E
$GPGGA,191136.000,1907.8973,N,07255.1118,E,1,6,1.34,52.7,M,-62.8,M,,*46
$GPGLL,1907.8973,N,07255.1118,E,191136.000,A,A*52
$GPGSA,A,3,02,05,19,06,12,17,,,,,,,1.66,1.34,0.98*08
$GPGSV,3,1,09,02,66,342,33,12,45,334,30,05,42,164,36,24,37,250,18*79
$GPGSV,3,2,09,06,35,029,32,193,26,065,27,19,24,057,30,17,14,071,30*4B
$GPGSV,3,3,09,25,07,323,*42
$GPRMC,191136.000,A,1907.8973,N,07255.1118,E,0.06,322.73,100217,,,A*61
$GPVTG,322.73,T,,M,0.06,N,0.11,K,A*3C
$GPGGA,191137.000,1907.8973,N,07255.1118,E,1,6,1.34,52.7,M,-62.8,M,,*47
$GPGLL,1907.8973,N,07255.1118,E,191137.000,A,A*53
$GPGSA,A,3,02,05,19,06,12,17,,,,,,,1.66,1.34,0.98*08
$GPGSV,3,1,09,02,66,342,32,12,45,334,30,05,42,164,35,24,37,250,17*74
$GPGSV,3,2,09,06,35,029,31,193,26,065,27,19,24,057,30,17,14,071,30*48
$GPGSV,3,3,09,25,07,323,*42
$GPRMC,191137.000,A,1907.8973,N,07255.1118,E,0.00,100.83,100217,,,A*6B
$GPVTG,100.83,T,,M,0.00,N,0.00,K,A*37
$GPGGA,191138.000,1907.8973,N,07255.1118,E,1,6,1.34,52.7,M,-62.8,M,,*48
$GPGLL,1907.8973,N,07255.1118,E,191138.000,A,A*5C
$GPGSA,A,3,02,05,19,06,12,17,,,,,,,1.66,1.34,0.98*08
$GPGSV,3,1,09,02,66,342,32,12,45,334,31,05,42,164,35,24,37,250,17*75
$GPGSV,3,2,09,06,35,029,31,193,26,065,27,19,24,057,30,17,14,071,30*48
$GPGSV,3,3,09,25,07,323,*42
$GPRMC,191138.000,A,1907.8973,N,07255.1118,E,0.08,196.25,100217,,,A*6F
$GPVTG,196.25,T,,M,0.08,N,0.15,K,A*38
$GPGGA,191139.000,1907.8973,N,07255.1118,E,1,6,1.34,52.7,M,-62.8,M,,*49
$GPGLL,1907.8973,N,07255.1118,E,191139.000,A,A*5D
$GPGSA,A,3,02,05,19,06,12,17,,,,,,,1.66,1.34,0.98*08
$GPGSV,3,1,09,02,66,342,32,12,45,334,31,05,42,164,35,24,37,250,17*75
$GPGSV,3,2,09,06,35,029,30,193,26,065,26,19,24,057,30,17,14,071,30*48
$GPGSV,3,3,09,25,07,323,*42
$GPRMC,191139.000,A,1907.8973,N,07255.1118,E,0.12,253.88,100217,,,A*68
$GPVTG,253.88,T,,M,0.12,N,0.22,K,A*3A
$GPGGA,191140.000,1907.8973,N,07255.1118,E,1,6,1.34,52.7,M,-62.8,M,,*47
$GPGLL,1907.8973,N,07255.1118,E,191140.000,A,A*53
$GPGSA,A,3,02,05,19,06,12,17,,,,,,,1.66,1.34,0.98*08
$GPGSV,3,1,09,02,66,342,32,12,45,334,30,05,43,164,35,24,37,250,16*74
$GPGSV,3,2,09,06,35,029,30,193,26,065,26,19,24,057,30,17,14,071,30*48
$GPGSV,3,3,09,25,07,323,*42
$GPRMC,191140.000,A,1907.8973,N,07255.1118,E,0.22,232.46,100217,,,A*60
$GPVTG,232.46,T,,M,0.22,N,0.40,K,A*38
$GPGGA,191141.000,1907.8972,N,07255.1117,E,1,6,1.34,52.7,M,-62.8,M,,*48
$GPGLL,1907.8972,N,07255.1117,E,191141.000,A,A*5C
$GPGSA,A,3,02,05,19,06,12,17,,,,,,,1.66,1.34,0.98*08
$GPGSV,3,1,09,02,66,342,33,12,45,334,30,05,43,164,35,24,37,250,15*76
$GPGSV,3,2,09,06,35,029,30,193,26,065,26,19,24,057,31,17,14,071,31*48
$GPGSV,3,3,09,25,07,323,*42
$GPRMC,191141.000,A,1907.8972,N,07255.1117,E,0.31,161.02,100217,,,A*68
$GPVTG,161.02,T,,M,0.31,N,0.57,K,A*39
$GPGGA,191142.000,1907.8972,N,07255.1117,E,1,6,1.34,52.7,M,-62.8,M,,*4B
$GPGLL,1907.8972,N,07255.1117,E,191142.000,A,A*5F
$GPGSA,A,3,02,05,19,06,12,17,,,,,,,1.66,1.34,0.98*08
$GPGSV,3,1,09,02,66,342,33,12,45,334,30,05,43,164,35,24,37,250,14*77
$GPGSV,3,2,09,06,35,029,29,193,26,065,25,19,24,057,31,17,14,071,31*43
$GPGSV,3,3,09,25,07,323,*42
$GPRMC,191142.000,A,1907.8972,N,07255.1117,E,0.30,177.45,100217,,,A*6E
$GPVTG,177.45,T,,M,0.30,N,0.56,K,A*3D
