,137,,13,02,178,*7A
$GPGSV,4,4,13,29,01,287,*4C
$GPRMC,192035.000,A,1907.8974,N,07255.1121,E,0.03,164.25,100217,,,A*6B
$GPVTG,164.25,T,,M,0.03,N,0.06,K,A*3C
$GPGGA,192036.000,1907.8974,N,07255.1121,E,1,7,1.29,53.2,M,-62.8,M,,*40
$GPGLL,1907.8974,N,07255.1121,E,192036.000,A,A*5D
$GPGSA,A,3,02,05,19,06,24,12,17,,,,,,2.73,1.29,2.40*02
$GPGSV,4,1,13,02,63,349,37,12,50,335,35,05,46,161,42,24,35,245,32*73
$GPGSV,4,2,13,06,31,030,33,193,26,064,30,19,23,061,32,17,12,075,19*44
$GPGSV,4,3,13,25,11,324,16,20,10,201,,28,02,137,,13,02,178,*7A
$GPGSV,4,4,13,29,01,287,*4C
$GPRMC,192036.000,A,1907.8974,N,07255.1121,E,0.01,52.36,100217,,,A*5C
$GPVTG,52.36,T,,M,0.01,N,0.01,K,A*0F
$GPGGA,192037.000,1907.8974,N,07255.1121,E,1,7,1.29,53.2,M,-62.8,M,,*41
$GPGLL,1907.8974,N,07255.1121,E,192037.000,A,A*5C
$GPGSA,A,3,02,05,19,06,24,12,17,,,,,,2.73,1.29,2.40*02
$GPGSV,4,1,13,02,63,349,37,12,50,335,34,05,46,161,42,24,35,245,33*73
$GPGSV,4,2,13,06,31,030,34,193,26,064,31,19,23,061,33,17,12,075,18*42
$GPGSV,4,3,13,25,11,324,16,20,10,201,,28,02,137,,13,02,178,*7A
$GPGSV,4,4,13,29,01,287,*4C
$GPRMC,192037.000,A,1907.8974,N,07255.1121,E,0.03,172.62,100217,,,A*6D
$GPVTG,172.62,T,,M,0.03,N,0.06,K,A*38
$GPGGA,192038.000,1907.8974,N,07255.1121,E,1,7,1.29,53.2,M,-62.8,M,,*4E
$GPGLL,1907.8974,N,07255.1121,E,192038.000,A,A*53
$GPGSA,A,3,02,05,19,06,24,12,17,,,,,,2.73,1.29,2.40*02
$GPGSV,4,1,13,02,63,349,37,12,50,335,33,05,46,161,42,24,35,245,34*73
$GPGSV,4,2,13,06,31,030,34,193,26,064,31,19,23,061,33,17,12,075,18*42
$GPGSV,4,3,13,25,11,324,16,20,10,201,,28,02,137,,13,02,178,*7A
$GPGSV,4,4,13,29,01,287,*4C
$GPRMC,192038.000,A,1907.8974,N,07255.1121,E,0.02,118.87,100217,,,A*64
$GPVTG,118.87,T,,M,0.02,N,0.05,K,A*3D
$GPGGA,192039.000,1907.8974,N,07255.1121,E,1,7,1.29,53.2,M,-62.8,M,,*4F
$GPGLL,1907.8974,N,07255.1121,E,192039.000,A,A*52
$GPGSA,A,3,02,05,19,06,24,12,17,,,,,,2.73,1.29,2.40*02
$GPGSV,4,1,13,02,63,349,37,12,50,335,32,05,46,161,42,24,35,245,35*73
$GPGSV,4,2,13,06,31,031,35,193,26,064,31,19,23,061,33,17,12,075,18*42
$GPGSV,4,3,13,25,11,324,15,20,10,201,,28,02,137,,13,02,178,*79
$GPGSV,4,4,13,29,01,287,*4C
$GPRMC,192039.000,A,1907.8974,N,07255.1121,E,0.02,96.53,100217,,,A*5B
$GPVTG,96.53,T,,M,0.02,N,0.04,K,A*02
$GPGGA,192040.000,1907.8974,N,07255.1121,E,1,7,1.29,53.2,M,-62.8,M,,*41
$GPGLL,1907.8974,N,07255.1121,E,192040.000,A,A*5C
$GPGSA,A,3,02,05,19,06,24,12,17,,,,,,2.73,1.29,2.40*02
$GPGSV,4,1,13,02,63,349,23,12,50,335,25,05,46,161,33,24,35,245,28*7A
$GPGSV,4,2,13,06,31,031,25,193,26,064,23,19,23,061,25,17,12,075,18*47
$GPGSV,4,3,13,25,11,324,15,20,10,201,,28,02,137,,13,02,178,*79
$GPGSV,4,4,13,29,01,287,*4C
$GPRMC,192040.000,A,1907.8974,N,07255.1121,E,0.01,53.11,100217,,,A*59
$GPVTG,53.11,T,,M,0.01,N,0.01,K,A*0B
$GPGGA,192041.000,1907.8974,N,07255.1121,E,1,7,1.29,53.2,M,-62.8,M,,*40
$GPGLL,1907.8974,N,07255.1121,E,192041.000,A,A*5D
$GPGSA,A,3,02,05,19,06,24,12,17,,,,,,2.73,1.29,2.40*02
$GPGSV,4,1,13,02,63,349,36,12,50,335,27,05,46,161,43,24,35,245,30*72
$GPGSV,4,2,13,06,31,031,27,193,26,064,33,19,23,061,36,17,12,075,19*47
$GPGSV,4,3,13,25,11,324,15,20,10,201,,28,02,137,,13,02,178,*79
$GPGSV,4,4,13,29,01,287,*4C
$GPRMC,192041.000,A,1907.8974,N,07255.1121,E,0.02,239.41,100217,,,A*60
$GPVTG,239.41,T,,M,0.02,N,0.04,K,A*36
$GPGGA,192042.000,1907.8974,N,07255.1121,E,1,7,1.29,53.2,M,-62.8,M,,*43
$GPGLL,1907.8974,N,07255.1121,E,192042.000,A,A*5E
$GPGSA,A,3,02,05,19,06,24,12,17,,,,,,2.72,1.29,2.40*03
$GPGSV,4,1,13,02,63,349,36,12,50,335,27,05,46,161,42,24,35,245,31*72
$GPGSV,4,2,13,06,31,031,34,193,26,064,32,19,23,061,35,17,12,075,19*47
$GPGSV,4,3,13,25,11,324,16,20,10,201,,28,02,137,,13,02,178,*7A
$GPGSV,4,4,13,29,01,287,*4C
$GPRMC,192042.000,A,1907.8974,N,07255.1121,E,0.02,31.62,100217,,,A*58
$GPVTG,31.62,T,,M,0.02,N,0.04,K,A*0D
$GPGGA,192043.000,1907.8974,N,07255.1121,E,1,7,1.29,53.2,M,-62.8,M,,*42
$GPGLL,1907.8974,N,07255.1121,E,192043.000,A,A*5F
$GPGSA,A,3,02,05,19,06,24,12,17,,,,,,2.73,1.29,2.40*02
$GPGSV,4,1,13,02,63,349,34,12,50,335,19,05,46,161,41,24,35,245,32*7D
$GPGSV,4,2,13,06,31,031,33,193,26,064,25,19,23,061,28,17,12,075,19*4A
$GPGSV,4,3,13,25,11,324,16,20,10,201,,28,02,137,,13,02,178,*7A
$GPGSV,4,4,13,29,01,287,*4C
$GPRMC,192043.000,A,1907.8974,N,07255.1121,E,0.02,77.01,100217,,,A*5E
$GPVTG,77.01,T,,M,0.02,N,0.03,K,A*0D
$GPGGA,192044.000,1907.8974,N,07255.1121,E,1,7,1.29,53.2,M,-62.8,M,,*45
$GPGLL,1907.8974,N,07255.1121,E,192044.000,A,A*58
$GPGSA,A,3,02,05,19,06,24,12,17,,,,,,2.72,1.29,2.40*03
$GPGSV,4,1,13,02,63,349,35,12,50,335,28,05,46,161,41,24,35,245,33*7F
$GPGSV,4,2,13,06,31,031,33,193,26,064,27,19,23,061,29,17,12,075,19*49
$GPGSV,4,3,13,25,11,324,15,20,10,201,,28,02,137,,13,02,178,*79
$GPGSV,4,4,13,29,01,287,*4C
$GPRMC,192044.000,A,1907.8974,N,07255.1121,E,0.02,100.83,100217,,,A*62
$GPVTG,100.83,T,,M,0.02,N,0.03,K,A*36
$GPGGA,192045.000,1907.8974,N,07255.1122,E,1,7,1.29,53.2,M,-62.8,M,,*47
$GPGLL,1907.8974,N,07255.1122,E,192045.000,A,A*5A
$GPGSA,A,3,02,05,19,06,24,12,17,,,,,,2.72,1.29,2.40*03
$GPGSV,4,1,13,02,63,349,35,12,50,335,27,05,46,161,41,24,35,245,34*77
$GPGSV,4,2,13,06,31,031,33,193,26,064,28,19,23,061,30,17,12,075,19*4E
$GPGSV,4,3,13,25,11,324,14,20,10,201,,28,02,137,,13,02,178,*78
$GPGSV,4,4,13,29,01,287,*4C
$GPRMC,192045.000,A,1907.8974,N,07255.1122,E,0.01,110.07,100217,,,A*6E
$GPVTG,110.07,T,,M,0.01,N,0.02,K,A*39
$GPGGA,192046.000,1907.8974,N,07255.1122,E,1,7,1.29,53.2,M,-62.8,M,,*44
$GPGLL,1907.8974,N,07255.1122,E,192046.000,A,A*59
$GPGSA,A,3,02,05,19,06,24,12,17,,,,,,2.72,1.29,2.40*03
$GPGSV,4,1,13,02,63,349,34,12,50,335,26,05,46,161,41,24,35,245,34*77
$GPGSV,4,2,13,06,31,031,32,193,26,064,27,19,23,061,30,17,12,075,19*40
$GPGSV,4,3,13,25,11,324,14,20,10,201,,28,02,137,,13,02,177,*77
$GPGSV,4,4,13,29,01,287,*4C
$GPRMC,192046.000,A,1907.8974,N,07255.1122,E,0.01,144.01,100217,,,A*6A
$GPVTG,144.01,T,,M,0.01,N,0.02,K,A*3E
$GPGGA,192047.000,1907.8974,N,07255.1122,E,1,7,1.29,53.2,M,-62.8,M,,*45
$GPGLL,1907.8974,N,07255.1122,E,192047.000,A,A*58
$GPGSA,A,3,02,05,19,06,24,12,17,,,,,,2.72,1.29,2.40*03
$GPGSV,4,1,13,02,63,349,35,12,50,335,27,05,46,161,42,24,35,245,34*74
$GPGSV,4,2,13,06,31,031,32,193,26,064,29,19,23,061,31,17,12,075,19*4F
$GPGSV,4,3,13,25,11,324,14,20,10,201,,28,02,137,,13,02,177,*77
$GPGSV,4,4,13,29,01,287,*4C
$GPRMC,192047.000,A,1907.8974,N,07255.1122,E,0.02,41.21,100217,,,A*5E
$GPVTG,41.21,T,,M,0.02,N,0.05,K,A*0C
$GPGGA,192048.000,1907.8974,N,07255.1122,E,1,7,1.29,53.2,M,-62.8,M,,*4A
$GPGLL,1907.8974,N,07255.1122,E,192048.000,A,A*57
$GPGSA,A,3,02,05,19,06,24,12,17,,,,,,2.72,1.29,2.40*03
$GPGSV,4,1,13,02,63,349,36,12,50,335,28,05,46,161,42,24,35,245,33*7F
$GPGSV,4,2,13,06,31,031,31,193,26,064,30,19,23,061,31,17,12,075,19*44
$GPGSV,4,3,13,25,11,324,15,20,10,201,,28,02,137,,13,02,177,*76
$GPGSV,4,4,13,29,01,287,*4C
$GPRMC,192048.000,A,1907.8974,N,07255.1122,E,0.02,5.10,100217,,,A*63
$GPVTG,5.10,T,,M,0.02,N,0.04,K,A*3F
$GPGGA,192049.000,1907.8974,N,07255.1122,E,1,7,1.29,53.3,M,-62.8,M,,*4A
$GPGLL,1907.8974,N,07255.1122,E,192049.000,A,A*56
$GPGSA,A,3,02,05,19,06,24,12,17,,,,,,2.72,1.29,2.40*03
$GPGSV,4,1,13,02,63,349,35,12,50,335,27,05,46,161,42,24,35,245,34*74
$GPGSV,4,2,13,06,31,031,31,193,26,064,30,19,23,061,31,17,12,075,19*44
$GPGSV,4,3,13,25,11,324,15,20,10,201,,28,02,137,,13,02,177,*76
$GPGSV,4,4,13,29,01,287,*4C
$GPRMC,192049.000,A,1907.8974,N,07255.1122,E,0.02,61.78,100217,,,A*5E
$GPVTG,61.78,T,,M,0.02,N,0.04,K,A*03
$GPGGA,192050.000,1907.8974,N,07255.1122,E,1,7,1.29,53.3,M,-62.8,M,,*42
$GPGLL,1907.8974,N,07255.1122,E,192050.000,A,A*5E
$GPGSA,A,3,02,05,19,06,24,12,17,,,,,,2.72,1.29,2.40*03
$GPGSV,4,1,13,02,63,349,35,12,50,335,26,05,46,161,41,24,35,245,34*76
$GPGSV,4,2,13,06,31,031,31,193,26,064,30,19,23,061,31,17,12,075,20*4E
$GPGSV,4,3,13,25,11,324,14,20,10,201,,28,02,137,,13,02,177,*77
$GPGSV,4,4,13,29,01,287,*4C
$GPRMC,192050.000,A,1907.8974,N,07255.1122,E,0.03,203.97,100217,,,A*60
$GPVTG,203.97,T,,M,0.03,N,0.05,K,A*34
$GPGGA,192051.000,1907.8974,N,07255.1122,E,1,7,1.29,53.3,M,-62.8,M,,*43
$GPGLL,1907.8974,N,07255.1122,E,192051.000,A,A*5F
$GPGSA,A,3,02,05,19,06,24,12,17,,,,,,2.72,1.29,2.40*03
$GPGSV,4,1,13,02,63,349,35,12,50,335,26,05,46,161,40,24,35,245,34*77
$GPGSV,4,2,13,06,31,031,31,193,26,064,31,19,23,061,32,17,12,075,20*4C
$GPGSV,4,3,13,25,11,324,15,20,10,201,,28,02,137,,13,02,177,*76
$GPGSV,4,4,13,29,01,287,*4C
$GPRMC,192051.000,A,1907.8974,N,07255.1122,E,0.02,173.91,100217,,,A*62
$GPVTG,173.91,T,,M,0.02,N,0.03,K,A*31
$GPGGA,192052.000,1907.8974,N,07255.1122,E,1,7,1.29,53.3,M,-62.8,M,,*40
$GPGLL,1907.8974,N,07255.1122,E,192052.000,A,A*5C
$GPGSA,A,3,02,05,19,06,24,12,17,,,,,,2.72,1.29,2.40*03
$GPGSV,4,1,13,02,63,349,35,12,50,335,25,05,46,161,40,24,35,245,34*74
$GPGSV,4,2,13,06,31,031,31,193,26,064,32,19,23,061,31,17,12,075,19*46
$GPGSV,4,3,13,25,11,324,16,20,10,201,,28,02,137,,13,02,177,*75
$GPGSV,4,4,13,29,01,287,*4C
$GPRMC,192052.000,A,1907.8974,N,07255.1122,E,0.02,32.58,100217,,,A*50
$GPVTG,32.58,T,,M,0.02,N,0.03,K,A*00
$GPGGA,192053.000,1907.8974,N,07255.1122,E,1,7,1.29,53.3,M,-62.8,M,,*41
$GPGLL,1907.8974,N,07255.1122,E,192053.000,A,A*5D
$GPGSA,A,3,02,05,19,06,24,12,17,,,,,,2.72,1.29,2.40*03
$GPGSV,4,1,13,02,63,349,35,12,50,335,26,05,46,161,40,24,35,245,34*77
$GPGSV,4,2,13,06,31,031,32,193,26,064,32,19,23,061,30,17,12,075,19*44
$GPGSV,4,3,13,25,11,324,15,20,10,201,,28,02,137,,13,02,177,*76
$GPGSV,4,4,13,29,01,287,*4C
$GPRMC,192053.000,A,1907.8974,N,07255.1122,E,0.02,206.24,100217,,,A*6F
$GPVTG,206.24,T,,M,0.02,N,0.03,K,A*3E
$GPGGA,192054.000,1907.8974,N,07255.1122,E,1,7,1.29,53.3,M,-62.8,M,,*46
$GPGLL,1907.8974,N,07255.1122,E,192054.000,A,A*5A
$GPGSA,A,3,02,05,19,06,24,12,17,,,,,,2.72,1.29,2.40*03
$GPGSV,4,1,13,02,63,349,35,12,50,335,27,05,46,161,40,24,35,245,34*76
$GPGSV,4,2,13,06,31,031,32,193,26,064,32,19,23,061,30,17,12,075,19*44
$GPGSV,4,3,13,25,11,324,14,20,10,201,,28,02,137,,13,02,177,*77
$GPGSV,4,4,13,29,01,287,*4C
$GPRMC,192054.000,A,1907.8974,N,07255.1122,E,0.03,113.56,100217,,,A*6B
$GPVTG,113.56,T,,M,0.03,N,0.05,K,A*3B
$GPGGA,192055.000,1907.8974,N,07255.1122,E,1,7,1.29,53.3,M,-62.8,M,,*47
$GPGLL,1907.8974,N,07255.1122,E,192055.000,A,A*5B
$GPGSA,A,3,02,05,19,06,24,12,17,,,,,,2.72,1.29,2.40*03
$GPGSV,4,1,13,02,63,349,35,12,50,335,35,05,46,161,40,24,35,245,35*74
$GPGSV,4,2,13,06,31,031,33,193,26,064,31,19,23,061,30,17,12,075,20*4C
$GPGSV,4,3,13,25,11,324,13,20,10,201,,28,02,137,,13,02,177,*70
$GPGSV,4,4,13,29,01,287,*4C
$GPRMC,192055.000,A,1907.8974,N,07255.1122,E,0.02,89.40,100217,,,A*5E
$GPVTG,89.40,T,,M,0.02,N,0.04,K,A*0E
$GPGGA,192056.000,1907.8974,N,07255.1122,E,1,7,1.29,53.3,M,-62.8,M,,*44
$GPGLL,1907.8974,N,07255.1122,E,192056.000,A,A*58
$GPGSA,A,3,02,05,19,06,24,12,17,,,,,,2.72,1.29,2.39*0D
$GPGSV,4,1,13,02,63,349,36,12,50,335,35,05,46,161,40,24,35,245,34*76
$GPGSV,4,2,13,06,31,031,33,193,26,064,30,19,23,061,30,17,12,075,20*4D
$GPGSV,4,3,13,25,11,324,13,20,10,201,,28,02,137,,13,02,177,*70
$GPGSV,4,4,13,29,01,287,*4C
$GPRMC,192056.000,A,1907.8974,N,07255.1122,E,0.02,28.67,100217,,,A*53
$GPVTG,28.67,T,,M,0.02,N,0.04,K,A*00
$GPGGA,192057.000,1907.8974,N,07255.1122,E,1,7,1.29,53.3,M,-62.8,M,,*45
$GPGLL,1907.8974,N,07255.1122,E,192057.000,A,A*59
$GPGSA,A,3,02,05,19,06,24,12,17,,,,,,2.72,1.29,2.40*03
$GPGSV,4,1,13,02,63,349,37,12,50,335,34,05,46,161,40,24,35,245,34*76
$GPGSV,4,2,13,06,31,031,33,193,26,064,30,19,23,061,30,17,12,075,20*4D
$GPGSV,4,3,13,25,11,324,13,20,10,201,,28,02,137,,13,02,177,*70
$GPGSV,4,4,13,29,01,287,*4C
$GPRMC,192057.000,A,1907.8974,N,07255.1122,E,0.03,10.47,100217,,,A*5A
$GPVTG,10.47,T,,M,0.03,N,0.06,K,A*0A
$GPGGA,192058.000,1907.8974,N,07255.1122,E,1,7,1.29,53.3,M,-62.8,M,,*4A
$GPGLL,1907.8974,N,07255.1122,E,192058.000,A,A*56
$GPGSA,A,3,02,05,19,06,24,12,17,,,,,,2.72,1.29,2.39*0D
$GPGSV,4,1,13,02,63,349,37,12,50,335,35,05,46,161,40,24,35,245,34*77
$GPGSV,4,2,13,06,31,031,33,193,26,064,31,19,23,061,30,17,12,075,21*4D
$GPGSV,4,3,13,25,11,324,13,20,10,201,,28,02,137,,13,02,177,*70
$GPGSV,4,4,13,29,01,287,*4C
$GPRMC,192058.000,A,1907.8974,N,07255.1122,E,0.01,70.56,100217,,,A*51
$GPVTG,70.56,T,,M,0.01,N,0.02,K,A*0A
$GPGGA,192059.000,1907.8974,N,07255.1122,E,1,7,1.29,53.3,M,-62.8,M,,*4B
$GPGLL,1907.8974,N,07255.1122,E,192059.000,A,A*57
$GPGSA,A,3,02,05,19,06,24,12,17,,,,,,2.72,1.29,2.40*03
$GPGSV,4,1,13,02,63,349,37,12,50,335,33,05,46,161,41,24,35,245,34*70
$GPGSV,4,2,13,06,31,031,34,193,26,064,31,19,23,061,30,17,12,075,21*4A
$GPGSV,4,3,13,25,11,324,13,20,10,201,,28,02,137,,13,02,177,*70
$GPGSV,4,4,13,29,01,287,*4C
$GPRMC,192059.000,A,1907.8974,N,07255.1122,E,0.03,98.59,100217,,,A*5B
$GPVTG,98.59,T,,M,0.03,N,0.06,K,A*05
$GPGGA,192100.000,1907.8974,N,07255.1122,E,1,7,1.29,53.3,M,-62.8,M,,*46
$GPGLL,1907.8974,N,07255.1122,E,192100.000,A,A*5A
$GPGSA,A,3,02,05,19,06,24,12,17,,,,,,2.72,1.29,2.40*03
$GPGSV,4,1,13,02,63,349,37,12,50,335,33,05,46,161,41,24,35,245,34*70
$GPGSV,4,2,13,06,31,031,34,193,26,064,32,19,23,061,31,17,12,075,22*4B
$GPGSV,4,3,13,25,11,324,13,20,10,201,,28,02,137,,13,02,177,*70
$GPGSV,4,4,13,29,01,287,*4C
$GPRMC,192100.000,A,1907.8974,N,07255.1122,E,0.01,124.49,100217,,,A*63
$GPVTG,124.49,T,,M,0.01,N,0.02,K,A*34
$GPGGA,192101.000,1907.8974,N,07255.1122,E,1,7,1.29,53.3,M,-62.8,M,,*47
$GPGLL,1907.8974,N,07255.1122,E,192101.000,A,A*5B
$GPGSA,A,3,02,05,19,06,24,12,17,,,,,,2.72,1.29,2.39*0D
$GPGSV,4,1,13,02,63,349,37,12,50,335,34,05,46,161,41,24,35,245,34*77
$GPGSV,4,2,13,06,31,031,34,193,26,064,32,19,23,061,31,17,12,075,22*4B
$GPGSV,4,3,13,25,11,324,14,20,10,201,,28,02,137,,13,02,177,*77
$GPGSV,4,4,13,29,01,287,*4C
$GPRMC,192101.000,A,1907.8974,N,07255.1122,E,0.01,62.51,100217,,,A*58
$GPVTG,62.51,T,,M,0.01,N,0.03,K,A*0F
$GPGGA,192102.000,1907.8974,N,07255.1122,E,1,7,1.29,53.3,M,-62.8,M,,*44
$GPGLL,1907.8974,N,07255.1122,E,192102.000,A,A*58
$GPGSA,A,3,02,05,19,06,24,12,17,,,,,,2.72,1.29,2.39*0D
$GPGSV,4,1,13,02,63,349,37,12,50,335,34,05,46,161,41,24,35,245,34*77
$GPGSV,4,2,13,06,31,031,34,193,26,064,32,19,23,061,31,17,12,075,22*4B
$GPGSV,4,3,13,25,11,324,14,20,10,201,,28,02,137,,13,02,177,*77
$GPGSV,4,4,13,29,01,287,*4C
$GPRMC,192102.000,A,1907.8974,N,07255.1122,E,0.01,34.15,100217,,,A*58
$GPVTG,34.15,T,,M,0.01,N,0.01,K,A*0E
$GPGGA,192103.000,1907.8974,N,07255.1122,E,1,7,1.29,53.3,M,-62.8,M,,*45
$GPGLL,1907.8974,N,07255.1122,E,192103.000,A,A*59
$GPGSA,A,3,02,05,19,06,24,12,17,,,,,,2.72,1.29,2.39*0D
$GPGSV,4,1,13,02,63,349,37,12,50,335,34,05,46,161,41,24,35,245,34*77
$GPGSV,4,2,13,06,31,031,33,193,26,064,32,19,23,061,31,17,12,075,22*4C
$GPGSV,4,3,13,25,11,324,14,20,10,201,,28,02,137,,13,02,177,*77
$GPGSV,4,4,13,29,01,287,*4C
$GPRMC,192103.000,A,1907.8974,N,07255.1122,E,0.02,44.89,100217,,,A*58
$GPVTG,44.89,T,,M,0.02,N,0.03,K,A*0D
$GPGGA,192104.000,1907.8974,N,07255.1122,E,1,7,1.29,53.3,M,-62.8,M,,*42
$GPGLL,1907.8974,N,07255.1122,E,192104.000,A,A*5E
$GPGSA,A,3,02,05,19,06,24,12,17,,,,,,2.72,1.29,2.39*0D
$GPGSV,4,1,13,02,63,349,37,12,50,335,34,05,46,161,41,24,35,245,35*76
$GPGSV,4,2,13,06,31,031,33,193,26,064,32,19,23,061,31,17,12,075,21*4F
$GPGSV,4,3,13,25,11,324,13,20,10,201,,28,02,137,,13,02,177,*70
$GPGSV,4,4,13,29,01,287,*4C
$GPRMC,192104.000,A,1907.8974,N,07255.1122,E,0.00,51.66,100217,,,A*58
$GPVTG,51.66,T,,M,0.00,N,0.01,K,A*08
$GPGGA,192105.000,1907.8974,N,07255.1122,E,1,7,1.29,53.3,M,-62.8,M,,*43
$GPGLL,1907.8974,N,07255.1122,E,192105.000,A,A*5F
$GPGSA,A,3,02,05,19,06,24,12,17,,,,,,2.72,1.29,2.39*0D
$GPGSV,4,1,13,02,63,349,37,12,50,335,33,05,46,161,41,24,35,245,35*71
$GPGSV,4,2,13,06,31,031,33,193,26,064,32,19,23,061,31,17,12,075,20*4E
$GPGSV,4,3,13,25,11,324,13,20,10,201,,28,02,137,,13,02,177,*70
$GPGSV,4,4,13,29,01,287,*4C
$GPRMC,192105.000,A,1907.8974,N,07255.1122,E,0.02,29.10,100217,,,A*55
$GPVTG,29.10,T,,M,0.02,N,0.03,K,A*06
$GPGGA,192106.000,1907.8974,N,07255.1122,E,1,7,1.29,53.3,M,-62.8,M,,*40
$GPGLL,1907.8974,N,07255.1122,E,192106.000,A,A*5C
$GPGSA,A,3,02,05,19,06,24,12,17,,,,,,2.72,1.29,2.39*0D
$GPGSV,4,1,13,02,63,349,37,12,50,335,34,05,46,161,41,24,35,245,35*76
$GPGSV,4,2,13,06,31,031,34,193,26,064,32,19,23,061,30,17,12,075,20*48
$GPGSV,4,3,13,25,11,324,13,20,10,201,,28,02,137,,13,02,177,*70
$GPGSV,4,4,13,29,01,287,*4C
$GPRMC,192106.000,A,1907.8974,N,07255.1122,E,0.03,144.12,100217,,,A*6F
$GPVTG,144.12,T,,M,0.03,N,0.05,K,A*39
$GPGGA,192107.000,1907.8974,N,07255.1122,E,1,7,1.29,53.3,M,-62.8,M,,*41
$GPGLL,1907.8974,N,07255.1122,E,192107.000,A,A*5D
$GPGSA,A,3,02,05,19,06,24,12,17,,,,,,2.72,1.29,2.39*0D
$GPGSV,4,1,13,02,63,349,37,12,50,335,33,05,46,161,41,24,35,245,35*71
$GPGSV,4,2,13,06,31,031,34,193,26,064,32,19,23,061,31,17,12,075,21*48
$GPGSV,4,3,13,25,11,324,14,20,10,201,,28,02,137,,13,02,177,*77
$GPGSV,4,4,13,29,01,287,*4C
$GPRMC,192107.000,A,1907.8974,N,07255.1122,E,0.02,56.95,100217,,,A*52
$GPVTG,56.95,T,,M,0.02,N,0.03,K,A*03
$GPGGA,192108.000,1907.8974,N,07255.1122,E,1,7,1.29,53.3,M,-62.8,M,,*4E
$GPGLL,1907.8974,N,07255.1122,E,192108.000,A,A*52
$GPGSA,A,3,02,05,19,06,24,12,17,,,,,,2.72,1.29,2.39*0D
$GPGSV,4,1,13,02,63,349,36,12,50,335,34,05,46,161,41,24,35,245,35*77
$GPGSV,4,2,13,06,31,031,34,193,26,064,32,19,23,061,31,17,12,075,22*4B
$GPGSV,4,3,13,25,11,324,13,20,10,201,,28,02,137,,13,02,177,*70
$GPGSV,4,4,13,29,01,287,*4C
$GPRMC,192108.000,A,1907.8974,N,07255.1122,E,0.01,34.22,100217,,,A*56
$GPVTG,34.22,T,,M,0.01,N,0.02,K,A*09
$GPGGA,192109.000,1907.8974,N,07255.1122,E,1,7,1.29,53.3,M,-62.8,M,,*4F
$GPGLL,1907.8974,N,07255.1122,E,192109.000,A,A*53
$GPGSA,A,3,02,05,19,06,24,12,17,,,,,,2.72,1.29,2.39*0D
$GPGSV,4,1,13,02,63,349,37,12,50,335,34,05,46,161,41,24,35,245,35*76
$GPGSV,4,2,13,06,31,031,34,193,26,064,32,19,23,061,31,17,12,075,22*4B
$GPGSV,4,3,13,25,11,324,12,20,10,201,,28,02,137,,13,02,177,*71
$GPGSV,4,4,13,29,01,287,*4C
$GPRMC,192109.000,A,1907.8974,N,07255.1122,E,0.02,41.26,100217,,,A*52
$GPVTG,41.26,T,,M,0.02,N,0.04,K,A*0A
$GPGGA,192110.000,1907.8974,N,07255.1122,E,1,7,1.29,53.3,M,-62.8,M,,*47
$GPGLL,1907.8974,N,07255.1122,E,192110.000,A,A*5B
$GPGSA,A,3,02,05,19,06,24,12,17,,,,,,2.71,1.29,2.39*0E
$GPGSV,4,1,13,02,63,349,37,12,50,335,34,05,46,161,41,24,35,245,35*76
$GPGSV,4,2,13,06,31,031,34,193,26,064,32,19,23,061,31,17,12,075,22*4B
$GPGSV,4,3,13,25,11,324,13,20,10,201,,28,02,137,,13,02,177,*70
$GPGSV,4,4,13,29,01,287,*4C
$GPRMC,192110.000,A,1907.8974,N,07255.1122,E,0.02,93.21,100217,,,A*52
$GPVTG,93.21,T,,M,0.02,N,0.04,K,A*02
$GPGGA,192111.000,1907.8974,N,07255.1122,E,1,7,1.29,53.3,M,-62.8,M,,*46
$GPGLL,1907.8974,N,07255.1122,E,192111.000,A,A*5A
$GPGSA,A,3,02,05,19,06,24,12,17,,,,,,2.71,1.29,2.39*0E
$GPGSV,4,1,13,02,63,349,37,12,50,335,34,05,46,161,41,24,35,245,35*76
$GPGSV,4,2,13,06,31,031,34,193,26,064,32,19,23,061,31,17,12,075,21*48
$GPGSV,4,3,13,25,11,324,13,20,10,201,,28,02,137,,13,02,177,*70
$GPGSV,4,4,13,29,01,287,*4C
$GPRMC,192111.000,A,1907.8974,N,07255.1122,E,0.01,26.06,100217,,,A*5B
$GPVTG,26.06,T,,M,0.01,N,0.03,K,A*0D
$GPGGA,192112.000,1907.8974,N,07255.1122,E,1,7,1.29,53.3,M,-62.8,M,,*45
$GPGLL,1907.8974,N,07255.1122,E,192112.000,A,A*59
$GPGSA,A,3,02,05,19,06,24,12,17,,,,,,2.72,1.29,2.39*0D
$GPGSV,4,1,13,02,63,349,37,12,50,335,34,05,46,161,42,24,35,245,35*75
$GPGSV,4,2,13,06,31,031,34,193,26,064,33,19,23,061,31,17,12,075,21*49
$GPGSV,4,3,13,25,11,324,13,20,10,201,,28,02,137,,13,02,177,*70
$GPGSV,4,4,13,29,01,287,*4C
$GPRMC,192112.000,A,1907.8974,N,07255.1122,E,0.03,48.80,100217,,,A*5C
$GPVTG,48.80,T,,M,0.03,N,0.05,K,A*0F
$GPGGA,192113.000,1907.8974,N,07255.1122,E,1,7,1.29,53.3,M,-62.8,M,,*44
$GPGLL,1907.8974,N,07255.1122,E,192113.000,A,A*58
$GPGSA,A,3,02,05,19,06,24,12,17,,,,,,2.72,1.29,2.39*0D
$GPGSV,4,1,13,02,63,349,37,12,50,335,34,05,47,161,42,24,35,245,35*74
$GPGSV,4,2,13,06,31,031,34,193,26,064,33,19,23,061,30,17,12,075,20*49
$GPGSV,4,3,13,25,11,324,13,20,10,201,,28,02,137,,13,02,177,*70
$GPGSV,4,4,13,29,01,287,*4C
$GPRMC,192113.000,A,1907.8974,N,07255.1122,E,0.03,41.30,100217,,,A*5F
$GPVTG,41.30,T,,M,0.03,N,0.06,K,A*0E
$GPGGA,192114.000,1907.8974,N,07255.1122,E,1,7,1.29,53.3,M,-62.8,M,,*43
$GPGLL,1907.8974,N,07255.1122,E,192114.000,A,A*5F
$GPGSA,A,3,02,05,19,06,24,12,17,,,,,,2.71,1.29,2.39*0E
$GPGSV,4,1,13,02,63,349,37,12,50,335,34,05,47,161,42,24,35,245,35*74
$GPGSV,4,2,13,06,31,031,35,193,26,064,33,19,23,061,29,17,12,075,19*4A
$GPGSV,4,3,13,25,11,324,13,20,10,201,,28,02,137,,13,02,177,*70
$GPGSV,4,4,13,29,01,287,*4C
$GPRMC,192114.000,A,1907.8974,N,07255.1122,E,0.00,206.17,100217,,,A*6F
$GPVTG,206.17,T,,M,0.00,N,0.01,K,A*3E
$GPGGA,192115.000,1907.8974,N,07255.1122,E,1,7,1.29,53.3,M,-62.8,M,,*42
$GPGLL,1907.8974,N,07255.1122,E,192115.000,A,A*5E
$GPGSA,A,3,02,05,19,06,24,12,17,,,,,,2.71,1.29,2.39*0E
$GPGSV,4,1,13,02,63,349,37,12,50,335,34,05,47,161,42,24,35,245,35*74
$GPGSV,4,2,13,06,31,031,35,193,26,064,33,19,23,061,29,17,12,075,19*4A
$GPGSV,4,3,13,25,11,324,14,20,10,201,,28,02,137,,13,02,177,*77
$GPGSV,4,4,13,29,01,287,*4C
$GPRMC,192115.000,A,1907.8974,N,07255.1122,E,0.01,18.24,100217,,,A*52
$GPVTG,18.24,T,,M,0.01,N,0.02,K,A*01
$GPGGA,192116.000,1907.8974,N,07255.1122,E,1,7,1.29,53.3,M,-62.8,M,,*41
$GPGLL,1907.8974,N,07255.1122,E,192116.000,A,A*5D
$GPGSA,A,3,02,05,19,06,24,12,17,,,,,,2.71,1.29,2.39*0E
$GPGSV,4,1,13,02,63,349,37,12,50,335,34,05,47,161,42,24,35,245,35*74
$GPGSV,4,2,13,06,31,031,35,193,26,064,33,19,23,061,28,17,12,075,20*41
$GPGSV,4,3,13,25,11,324,15,20,10,201,,28,02,137,,13,02,177,*76
$GPGSV,4,4,13,29,01,287,*4C
$GPRMC,192116.000,A,1907.8974,N,07255.1122,E,0.01,87.33,100217,,,A*51
$GPVTG,87.33,T,,M,0.01,N,0.02,K,A*01
$GPGGA,192117.000,1907.8974,N,07255.1122,E,1,7,1.29,53.3,M,-62.8,M,,*40
$GPGLL,1907.8974,N,07255.1122,E,192117.000,A,A*5C
$GPGSA,A,3,02,05,19,06,24,12,17,,,,,,2.71,1.29,2.39*0E
$GPGSV,4,1,13,02,63,349,37,12,50,335,33,05,47,161,42,24,35,245,35*73
$GPGSV,4,2,13,06,31,031,35,193,26,064,33,19,23,061,28,17,12,075,19*4B
$GPGSV,4,3,13,25,11,324,15,20,10,201,,28,02,137,,13,02,177,*76
$GPGSV,4,4,13,29,01,287,*4C
$GPRMC,192117.000,A,1907.8974,N,07255.1122,E,0.02,105.47,100217,,,A*6B
$GPVTG,105.47,T,,M,0.02,N,0.05,K,A*3D
$GPGGA,192118.000,1907.8974,N,07255.1122,E,1,7,1.13,53.3,M,-62.8,M,,*46
$GPGLL,1907.8974,N,07255.1122,E,192118.000,A,A*53
$GPGSA,A,3,02,05,19,06,24,12,17,,,,,,1.46,1.13,0.92*03
$GPGSV,4,1,13,02,63,349,37,12,50,335,32,05,47,161,42,24,35,245,35*72
$GPGSV,4,2,13,06,31,031,34,193,26,064,33,19,23,061,29,17,12,075,21*40
$GPGSV,4,3,13,25,11,324,15,20,10,201,,28,02,137,,13,02,177,*76
$GPGSV,4,4,13,29,01,287,*4C
$GPRMC,192118.000,A,1907.8974,N,07255.1122,E,0.03,326.59,100217,,,A*69
$GPVTG,326.59,T,,M,0.03,N,0.05,K,A*30
$GPGGA,192119.000,1907.8974,N,07255.1122,E,1,7,1.29,53.3,M,-62.8,M,,*4E
$GPGLL,1907.8974,N,07255.1122,E,192119.000,A,A*52
$GPGSA,A,3,02,05,19,06,24,12,17,,,,,,2.71,1.29,2.39*0E
$GPGSV,4,1,13,02,63,349,37,12,50,335,32,05,47,161,42,24,35,245,35*72
$GPGSV,4,2,13,06,31,031,34,193,26,064,33,19,23,061,29,17,12,075,21*40
$GPGSV,4,3,13,25,11,324,15,20,10,201,,28,02,137,,13,02,177,*76
$GPGSV,4,4,13,29,01,287,*4C
$GPRMC,192119.000,A,1907.8974,N,07255.1122,E,0.00,325.16,100217,,,A*63
$GPVTG,325.16,T,,M,0.00,N,0.01,K,A*3F
$GPGGA,192120.000,1907.8974,N,07255.1123,E,1,7,1.29,53.3,M,-62.8,M,,*45
$GPGLL,1907.8974,N,07255.1123,E,192120.000,A,A*59
$GPGSA,A,3,02,05,19,06,24,12,17,,,,,,2.71,1.29,2.38*0F
$GPGSV,4,1,13,02,63,349,37,12,50,335,32,05,47,161,42,24,35,245,35*72
$GPGSV,4,2,13,06,31,031,34,193,26,064,33,19,23,061,30,17,12,075,22*4B
$GPGSV,4,3,13,25,11,324,15,20,10,201,,28,02,137,,13,02,177,*76
$GPGSV,4,4,13,29,01,287,*4C
$GPRMC,192120.000,A,1907.8974,N,07255.1123,E,0.01,135.88,100217,,,A*6D
$GPVTG,135.88,T,,M,0.01,N,0.02,K,A*39
$GPGGA,192121.000,1907.8974,N,07255.1123,E,1,7,1.29,53.3,M,-62.8,M,,*44
$GPGLL,1907.8974,N,07255.1123,E,192121.000,A,A*58
$GPGSA,A,3,02,05,19,06,24,12,17,,,,,,2.71,1.29,2.39*0E
$GPGSV,4,1,13,02,63,349,37,12,50,335,32,05,47,161,42,24,35,245,35*72
$GPGSV,4,2,13,06,31,031,34,193,26,064,33,19,23,061,30,17,12,075,21*48
$GPGSV,4,3,13,25,11,324,14,20,10,201,,28,02,137,,13,02,177,*77
$GPGSV,4,4,13,29,01,287,*4C
$GPRMC,192121.000,A,1907.8974,N,07255.1123,E,0.01,330.18,100217,,,A*62
$GPVTG,330.18,T,,M,0.01,N,0.03,K,A*36
$GPGGA,192122.000,1907.8974,N,07255.1123,E,1,7,1.29,53.3,M,-62.8,M,,*47
$GPGLL,1907.8974,N,07255.1123,E,192122.000,A,A*5B
$GPGSA,A,3,02,05,19,06,24,12,17,,,,,,2.71,1.29,2.39*0E
$GPGSV,4,1,13,02,63,349,37,12,50,335,32,05,47,161,42,24,35,245,35*72
$GPGSV,4,2,13,06,31,031,35,193,26,064,33,19,23,061,31,17,12,075,21*48
$GPGSV,4,3,13,25,11,324,14,20,10,201,,28,02,137,,13,02,177,*77
$GPGSV,4,4,13,29,01,287,*4C
$GPRMC,192122.000,A,1907.8974,N,07255.1123,E,0.01,104.92,100217,,,A*66
$GPVTG,104.92,T,,M,0.01,N,0.01,K,A*33
$GPGGA,192123.000,1907.8974,N,07255.1123,E,1,7,1.29,53.3,M,-62.8,M,,*46
$GPGLL,1907.8974,N,07255.1123,E,192123.000,A,A*5A
$GPGSA,A,3,02,05,19,06,24,12,17,,,,,,2.71,1.29,2.39*0E
$GPGSV,4,1,13,02,63,349,37,12,50,335,30,05,47,161,42,24,35,245,36*73
$GPGSV,4,2,13,06,31,031,35,193,26,064,32,19,23,061,33,17,12,075,23*49
$GPGSV,4,3,13,25,11,324,15,20,10,201,,28,02,137,,13,02,177,*76
$GPGSV,4,4,13,29,01,287,*4C
$GPRMC,192123.000,A,1907.8974,N,07255.1123,E,0.04,122.82,100217,,,A*67
$GPVTG,122.82,T,,M,0.04,N,0.08,K,A*3A
$GPGGA,192124.000,1907.8974,N,07255.1123,E,1,7,1.29,53.3,M,-62.8,M,,*41
$GPGLL,1907.8974,N,07255.1123,E,192124.000,A,A*5D
$GPGSA,A,3,02,05,19,06,24,12,17,,,,,,2.71,1.29,2.38*0F
$GPGSV,4,1,13,02,63,349,37,12,50,335,31,05,47,161,42,24,35,245,36*72
$GPGSV,4,2,13,06,31,031,36,193,26,064,32,19,23,061,32,17,12,075,22*4A
$GPGSV,4,3,13,25,11,324,15,20,10,201,,28,02,137,,13,02,177,*76
$GPGSV,4,4,13,29,01,287,*4C
$GPRMC,192124.000,A,1907.8974,N,07255.1123,E,0.02,65.42,100217,,,A*58
$GPVTG,65.42,T,,M,0.02,N,0.05,K,A*0F
$GPGGA,192125.000,1907.8974,N,07255.1123,E,1,7,1.29,53.3,M,-62.8,M,,*40
$GPGLL,1907.8974,N,07255.1123,E,192125.000,A,A*5C
$GPGSA,A,3,02,05,19,06,24,12,17,,,,,,2.71,1.29,2.39*0E
$GPGSV,4,1,13,02,63,349,37,12,50,335,31,05,47,161,42,24,35,245,36*72
$GPGSV,4,2,13,06,31,031,36,193,26,064,33,19,23,061,32,17,12,075,22*4B
$GPGSV,4,3,13,25,11,324,15,20,10,201,,28,02,137,,13,02,177,*76
$GPGSV,4,4,13,29,01,287,*4C
$GPRMC,192125.000,A,1907.8974,N,07255.1123,E,0.03,276.29,100217,,,A*65
$GPVTG,276.29,T,,M,0.03,N,0.05,K,A*33
$GPGGA,192126.000,1907.8975,N,07255.1123,E,1,7,1.29,53.3,M,-62.8,M,,*42
$GPGLL,1907.8975,N,07255.1123,E,192126.000,A,A*5E
$GPGSA,A,3,02,05,19,06,24,12,17,,,,,,2.71,1.29,2.38*0F
$GPGSV,4,1,13,02,63,349,37,12,50,335,31,05,47,161,43,24,35,245,36*73
$GPGSV,4,2,13,06,31,031,35,193,26,064,33,19,23,061,33,17,12,075,22*49
$GPGSV,4,3,13,25,11,324,14,20,10,201,,28,02,137,,13,02,177,*77
$GPGSV,4,4,13,29,01,287,*4C
$GPRMC,192126.000,A,1907.8975,N,07255.1123,E,0.02,316.69,100217,,,A*65
$GPVTG,316.69,T,,M,0.02,N,0.03,K,A*37
$GPGGA,192127.000,1907.8975,N,07255.1123,E,1,7,1.29,53.3,M,-62.8,M,,*43
$GPGLL,1907.8975,N,07255.1123,E,192127.000,A,A*5F
$GPGSA,A,3,02,05,19,06,24,12,17,,,,,,2.71,1.29,2.39*0E
$GPGSV,4,1,13,02,63,349,37,12,50,335,30,05,47,161,43,24,35,245,36*72
$GPGSV,4,2,13,06,31,031,34,193,26,064,33,19,23,062,33,17,12,075,23*4A
$GPGSV,4,3,13,25,11,324,14,20,10,201,,28,02,137,,13,02,177,*77
$GPGSV,4,4,13,29,01,287,*4C
$GPRMC,192127.000,A,1907.8975,N,07255.1123,E,0.01,107.32,100217,,,A*6B
$GPVTG,107.32,T,,M,0.01,N,0.02,K,A*39
$GPGGA,192128.000,1907.8975,N,07255.1123,E,1,7,1.29,53.3,M,-62.8,M,,*4C
$GPGLL,1907.8975,N,07255.1123,E,192128.000,A,A*50
$GPGSA,A,3,02,05,19,06,24,12,17,,,,,,2.71,1.29,2.39*0E
$GPGSV,4,1,13,02,63,349,37,12,50,335,30,05,47,161,43,24,35,245,36*72
$GPGSV,4,2,13,06,31,031,34,193,26,064,33,19,23,062,33,17,12,075,24*4D
$GPGSV,4,3,13,20,11,201,,25,11,324,14,28,02,137,,13,02,177,*76
$GPGSV,4,4,13,29,01,287,*4C
$GPRMC,192128.000,A,1907.8975,N,07255.1123,E,0.02,129.38,100217,,,A*61
$GPVTG,129.38,T,,M,0.02,N,0.03,K,A*3D
$GPGGA,192129.000,1907.8975,N,07255.1123,E,1,7,1.29,53.3,M,-62.8,M,,*4D
$GPGLL,1907.8975,N,07255.1123,E,192129.000,A,A*51
$GPGSA,A,3,02,05,19,06,24,12,17,,,,,,2.71,1.29,2.38*0F
$GPGSV,4,1,13,02,63,349,37,12,50,335,30,05,47,161,43,24,35,245,36*72
$GPGSV,4,2,13,06,31,031,34,193,26,064,32,19,23,062,33,17,12,075,24*4C
$GPGSV,4,3,13,20,11,201,,25,11,324,14,28,02,137,,13,02,177,*76
$GPGSV,4,4,13,29,01,287,*4C
$GPRMC,192129.000,A,1907.8975,N,07255.1123,E,0.03,324.01,100217,,,A*64
$GPVTG,324.01,T,,M,0.03,N,0.06,K,A*3C
$GPGGA,192130.000,1907.8975,N,07255.1123,E,1,7,1.29,53.3,M,-62.8,M,,*45
$GPGLL,1907.8975,N,07255.1123,E,192130.000,A,A*59
$GPGSA,A,3,02,05,19,06,24,12,17,,,,,,2.71,1.29,2.38*0F
$GPGSV,4,1,13,02,63,349,37,12,50,335,30,05,47,161,43,24,35,245,36*72
$GPGSV,4,2,13,06,31,031,33,193,26,064,31,19,23,062,32,17,12,075,22*4F
$GPGSV,4,3,13,20,11,201,,25,11,324,14,28,02,137,,13,02,177,*76
$GPGSV,4,4,13,29,01,287,*4C
$GPRMC,192130.000,A,1907.8975,N,07255.1123,E,0.02,255.41,100217,,,A*6E
$GPVTG,255.41,T,,M,0.02,N,0.03,K,A*3B
$GPGGA,192131.000,1907.8975,N,07255.1123,E,1,7,1.29,53.3,M,-62.8,M,,*44
$GPGLL,1907.8975,N,07255.1123,E,192131.000,A,A*58
$GPGSA,A,3,02,05,19,06,24,12,17,,,,,,2.71,1.29,2.38*0F
$GPGSV,4,1,13,02,63,349,38,12,50,335,30,05,47,161,43,24,35,245,36*7D
$GPGSV,4,2,13,06,31,031,33,193,26,064,31,19,23,062,31,17,12,075,23*4D
$GPGSV,4,3,13,20,11,201,,25,11,324,13,28,02,137,,13,02,177,*71
$GPGSV,4,4,13,29,01,287,*4C
$GPRMC,192131.000,A,1907.8975,N,07255.1123,E,0.00,284.06,100217,,,A*62
$GPVTG,284.06,T,,M,0.00,N,0.01,K,A*34
$GPGGA,192132.000,1907.8975,N,07255.1123,E,1,7,1.29,53.3,M,-62.8,M,,*47
$GPGLL,1907.8975,N,07255.1123,E,192132.000,A,A*5B
$GPGSA,A,3,02,05,19,06,24,12,17,,,,,,2.71,1.29,2.38*0F
$GPGSV,4,1,13,02,63,349,38,12,50,335,30,05,47,161,43,24,35,244,36*7C
$GPGSV,4,2,13,06,31,031,33,193,26,064,32,19,23,062,32,17,12,075,23*4D
$GPGSV,4,3,13,20,11,201,,25,11,324,13,28,02,137,,13,02,177,*71
$GPGSV,4,4,13,29,01,287,*4C
$GPRMC,192132.000,A,1907.8975,N,07255.1123,E,0.00,194.58,100217,,,A*68
$GPVTG,194.58,T,,M,0.00,N,0.01,K,A*3D
$GPGGA,192133.000,1907.8975,N,07255.1123,E,1,7,1.29,53.3,M,-62.8,M,,*46
$GPGLL,1907.8975,N,07255.1123,E,192133.000,A,A*5A
$GPGSA,A,3,02,05,19,06,24,12,17,,,,,,2.71,1.29,2.38*0F
$GPGSV,4,1,13,02,63,349,38,12,50,335,30,05,47,161,43,24,35,244,36*7C
$GPGSV,4,2,13,06,31,031,32,193,26,064,31,19,23,062,32,17,12,075,23*4F